customer_state,customer_city,Unique_Customers,Total_Revenue,AOV,Total_Orders,geolocation_state,geolocation_city,geolocation_lat,geolocation_lng
AC,brasileia,1,139.53,139.53,1,AC,brasileia,-11.01004213,-68.74725383
AC,cruzeiro do sul,3,1127.06,375.69,3,AC,cruzeiro do sul,-7.626290184367815,-72.66882069678161
AC,epitaciolandia,1,139.52,139.52,1,AC,epitaciolandia,-11.011048804000001,-68.71517698
AC,manoel urbano,1,248.71,248.71,1,AC,manoel urbano,-8.838577670428572,-69.26138481142857
AC,porto acre,1,104.35,104.35,1,AC,porto acre,-9.67942736925,-67.61447834500001
AC,rio branco,66,16917.55,241.68,70,AC,rio branco,-9.965817638524193,-67.8266304039113
AC,senador guiomard,2,547.09,273.54,2,AC,senador guiomard,-10.153066207857142,-67.73458259714286
AC,xapuri,2,445.89,222.94,2,AC,xapuri,-10.652037914285714,-68.50273305142858
AL,agua branca,1,132.1,132.1,1,AL,agua branca,-9.262317466285714,-37.93495308142857
AL,anadia,2,462.6,231.3,2,AL,anadia,-9.6840472215,-36.303293455
AL,arapiraca,28,10150.03,350.0,29,AL,arapiraca,-9.750597787663901,-36.65746205365145
AL,atalaia,1,137.65,137.65,1,AL,atalaia,-9.506693572333333,-36.0148813
AL,barra de santo antonio,2,629.12,314.56,2,AL,barra de santo antonio,-9.408943408555555,-35.50984263444444
AL,barra de sao miguel,2,226.64,113.32,2,AL,barra de sao miguel,-9.838045888727272,-35.89588712454545
AL,batalha,3,308.1,102.7,3,AL,batalha,-9.674351094866667,-37.127515261999996
AL,belem,2,656.47,218.82,3,AL,belem,-9.5798745685,-36.47589208
AL,boca da mata,2,298.03,149.01,2,AL,boca da mata,-9.6440928794375,-36.2139879525
AL,cacimbinhas,1,53.3,53.3,1,AL,cacimbinhas,-9.401102199428573,-36.97922775714286
AL,cajueiro,1,138.15,138.15,1,AL,cajueiro,-9.398762700999999,-36.146956945
AL,campo alegre,1,997.96,498.98,2,AL,campo alegre,-9.783852797058824,-36.35108525352941
AL,canapi,1,377.32,377.32,1,AL,canapi,-9.11590653175,-37.606784167499995
AL,coite do noia,1,111.01,111.01,1,AL,coite do noia,-9.6369057262,-36.57964853
AL,colonia leopoldina,2,531.85,265.92,2,AL,colonia leopoldina,-8.91622060425,-35.72673682375
AL,coruripe,3,1359.09,453.03,3,AL,coruripe,-10.125415704186047,-36.17492670953488
AL,delmiro gouveia,4,1353.71,338.43,4,AL,delmiro gouveia,-9.38263766276923,-38.009068923076924
AL,dois riachos,1,152.25,152.25,1,AL,dois riachos,-9.387081057,-37.08918597666666
AL,feliz deserto,2,423.75,211.88,2,AL,feliz deserto,-10.294557013333334,-36.308504660000004
AL,girau do ponciano,1,74.05,74.05,1,AL,girau do ponciano,-9.884218075777778,-36.82478093555555
AL,ibateguara,2,152.86,76.43,2,AL,ibateguara,-8.968665064428572,-35.92585894285715
AL,igaci,2,395.0,197.5,2,AL,igaci,-9.53887557775,-36.63139861625
AL,igreja nova,2,315.91,157.95,2,AL,igreja nova,-10.127829498571428,-36.655964721428575
AL,inhapi,2,1075.1,537.55,2,AL,inhapi,-9.221735414333333,-37.74793862333334
AL,jequia da praia,2,351.24,175.62,2,AL,jequia da praia,-13.96899736,-39.193239942000005
AL,junqueiro,2,464.41,232.2,2,AL,junqueiro,-9.888675029,-36.46836013
AL,lagoa da canoa,1,204.53,204.53,1,AL,lagoa da canoa,-9.828240238333334,-36.74064941333333
AL,luziapolis,1,181.62,181.62,1,AL,luziapolis,-9.653239687,-35.74496877
AL,maceio,242,53078.08,215.76,246,AL,maceio,-9.629208717239743,-35.732603410923076
AL,mar vermelho,1,689.02,344.51,2,AL,mar vermelho,-9.451208582,-36.38771183
AL,maragogi,5,2135.53,427.11,5,AL,maragogi,-9.006152218655172,-35.21896882931035
AL,maravilha,2,297.54,148.77,2,AL,maravilha,-9.233525306888888,-37.35892521
AL,marechal deodoro,1,379.2,379.2,1,AL,marechal deodoro,-9.734390637961537,-35.85630080076923
AL,maribondo,1,100.97,100.97,1,AL,maribondo,-9.575595757555554,-36.30313031
AL,mata grande,2,469.35,234.68,2,AL,mata grande,-9.117166260520001,-37.7400247376
AL,matriz de camaragibe,1,84.9,84.9,1,AL,matriz de camaragibe,-9.156772491666667,-35.53285944277778
AL,monteiropolis,1,203.43,203.43,1,AL,monteiropolis,-9.603077766333334,-37.247716843333336
AL,murici,1,84.05,84.05,1,AL,murici,-9.310496215285713,-35.945205875
AL,novo lino,1,114.26,114.26,1,AL,novo lino,-8.94189474,-35.66285816125
AL,olho d'agua das flores,2,346.07,115.36,3,AL,olho d'agua das flores,-9.534634659,-37.29474359666667
AL,palmeira dos indios,8,1463.46,182.93,8,AL,palmeira dos indios,-9.412678579902778,-36.631010159166664
AL,paripueira,1,379.2,379.2,1,AL,paripueira,-9.462653803111111,-35.54698141222222
AL,passo de camaragibe,1,110.28,110.28,1,AL,passo de camaragibe,-9.25106769209091,-35.48565905909091
AL,pau d'arco,1,150.98,150.98,1,AL,pau d'arco,45.06593318,9.34152763
AL,paulo jacinto,2,475.58,237.79,2,AL,paulo jacinto,-9.368571801571429,-36.371460694285716
AL,penedo,8,1592.67,199.08,8,AL,penedo,-10.285979873116883,-36.567379809220775
AL,piacabucu,1,320.4,160.2,2,AL,piacabucu,-10.40397387625,-36.424849795
AL,pilar,3,168.36,56.12,3,AL,pilar,-9.599491344451613,-35.956603465483866
AL,pindoba,2,542.52,271.26,2,AL,pindoba,-9.47501116575,-36.2889932225
AL,porto calvo,2,397.93,198.96,2,AL,porto calvo,-9.053788322379312,-35.39817578310345
AL,porto de pedras,1,200.35,200.35,1,AL,porto de pedras,-9.156245682333333,-35.30990792
AL,rio largo,6,693.04,115.51,6,AL,rio largo,-9.499204132827586,-35.83173540982759
AL,santa luzia do norte,1,44.95,44.95,1,AL,santa luzia do norte,-9.601084296285714,-35.82385710857143
AL,santana do ipanema,1,285.45,285.45,1,AL,santana do ipanema,-9.371471305628571,-37.24589023657143
AL,santana do mundau,3,1268.01,422.67,3,AL,santana do mundau,-9.1649773305,-36.218607305
AL,sao bras,1,54.74,54.74,1,AL,sao bras,-10.12626258,-36.89934931
AL,sao jose da laje,2,296.36,148.18,2,AL,sao jose da laje,-9.008710771499999,-36.057427152222225
AL,sao jose da tapera,1,144.47,144.47,1,AL,sao jose da tapera,-9.55899647605263,-37.3820493468421
AL,sao luis do quitunde,2,351.55,175.78,2,AL,sao luis do quitunde,-9.3147380894,-35.566486098666665
AL,sao miguel dos campos,2,1054.11,527.05,2,AL,sao miguel dos campos,-9.788253845783784,-36.09714810783784
AL,sao sebastiao,1,2269.98,2269.98,1,AL,sao sebastiao,-9.939869240666667,-36.55049585666667
AL,satuba,2,438.32,219.16,2,AL,satuba,-9.570613665571429,-35.826038694285714
AL,tanque d'arca,1,611.54,305.77,2,AL,tanque d'arca,-9.53431182375,-36.4344509425
AL,taquarana,1,190.43,190.43,1,AL,taquarana,-9.6476564275,-36.4946285525
AL,teotonio vilela,8,2599.38,324.92,8,AL,teotonio vilela,-9.912192989866666,-36.35689579333334
AL,traipu,1,63.79,63.79,1,AL,traipu,-9.967932445499999,-37.0028741
AL,uniao dos palmares,1,309.25,309.25,1,AL,uniao dos palmares,-9.156226712375,-36.0284432309375
AL,vicosa,1,56.05,56.05,1,AL,vicosa,-9.373464356833333,-36.24302821777778
AM,coari,1,1259.04,1259.04,1,AM,coari,-4.092132095449999,-63.141465568499996
AM,humaita,4,447.71,111.93,4,AM,humaita,-7.5179084975,-63.0131048253125
AM,itacoatiara,1,92.98,92.98,1,AM,itacoatiara,-3.1383913258695655,-58.44086219130435
AM,manaus,134,25793.06,185.56,139,AM,manaus,-3.0794704689930468,-60.0050459328445
AM,urucurituba,2,242.94,121.47,2,AM,urucurituba,-3.055411886,-58.076888114
AP,laranjal do jari,2,426.18,213.09,2,AP,laranjal do jari,-0.7805462678529412,-52.535366345294115
AP,macapa,53,13666.03,253.07,54,AP,macapa,0.03579679750772627,-51.0694914985872
AP,oiapoque,1,425.24,425.24,1,AP,oiapoque,3.8432993962916666,-51.833257081666666
AP,porto grande,1,64.14,64.14,1,AP,porto grande,0.7076814375,-51.40952110875
AP,santana,9,1543.94,171.55,9,AP,santana,-0.041618492060240965,-51.16913810337349
AP,vitoria do jari,1,137.27,137.27,1,AP,vitoria do jari,-0.905968755,-52.421336153999995
BA,abaira,2,203.0,101.5,2,BA,abaira,-13.250411134285715,-41.66386391714286
BA,abare,2,224.73,112.36,2,BA,abare,-8.691635840411763,-39.162170712352946
BA,abrantes,2,761.36,380.68,2,BA,abrantes,-12.829006533928572,-38.262143128214284
BA,acajutiba,1,50.95,50.95,1,BA,acajutiba,-11.664408178333334,-38.024282064999994
BA,adustina,1,102.27,102.27,1,BA,adustina,-10.537025737333332,-38.11501185
BA,alagoinhas,39,7428.33,185.71,40,BA,alagoinhas,-12.13661411132686,-38.423481355048544
BA,alcobaca,4,1481.9,370.48,4,BA,alcobaca,-17.520178068571425,-39.24121317428571
BA,amargosa,1,71.81,71.81,1,BA,amargosa,-13.028283414328358,-39.60130382164179
BA,amelia rodrigues,3,430.02,143.34,3,BA,amelia rodrigues,-12.399064070357143,-38.75671321785715
BA,america dourada,1,217.92,217.92,1,BA,america dourada,-11.455347064,-41.457921948
BA,anage,1,97.38,97.38,1,BA,anage,-14.61150058875,-41.13621769875
BA,andarai,1,109.5,109.5,1,BA,andarai,-12.780343758888888,-41.276339809999996
BA,andorinha,5,797.61,159.52,5,BA,andorinha,-10.344912145454545,-39.82950071954545
BA,angical,1,293.5,293.5,1,BA,angical,-12.006384427142859,-44.69816262571429
BA,anguera,1,144.99,144.99,1,BA,anguera,-12.150150398333333,-39.24608673666667
BA,antonio cardoso,2,439.92,219.96,2,BA,antonio cardoso,-12.4377448825,-39.1201871925
BA,antonio goncalves,1,51.69,51.69,1,BA,antonio goncalves,-10.572669087857141,-40.27595710285714
BA,apora,1,65.7,65.7,1,BA,apora,-11.66851904923077,-38.09956387230769
BA,apuarema,1,204.38,204.38,1,BA,apuarema,-13.85620250888889,-39.74443001
BA,aracatu,1,95.76,95.76,1,BA,aracatu,-14.417742491999999,-41.449893657000004
BA,araci,3,358.24,119.41,3,BA,araci,-11.33559228862745,-38.96193865137255
BA,aramari,1,222.56,111.28,2,BA,aramari,-12.092960637777777,-38.50143320666667
BA,arataca,1,865.78,865.78,1,BA,arataca,-15.26232310846154,-39.4180279
BA,arembepe,2,494.06,247.03,2,BA,arembepe,-12.76211615,-38.18152286
BA,aribice,1,76.15,76.15,1,,,,
BA,arraial d ajuda,1,90.7,90.7,1,BA,arraial d ajuda,-16.490871554,-39.082955364
BA,arraial d'ajuda,8,975.87,121.98,8,BA,arraial d'ajuda,-16.359449854642858,-39.35772180392858
BA,baianopolis,2,493.28,246.64,2,BA,baianopolis,-12.305735202,-44.538576684000006
BA,baixa grande,1,66.24,66.24,1,BA,baixa grande,-11.960977391363635,-40.16771056681818
BA,banzae,1,127.42,127.42,1,BA,banzae,-10.585334125,-38.616580549000005
BA,barra,2,194.84,97.42,2,BA,barra,-11.09142119515625,-43.14557370953125
BA,barra da estiva,6,1072.68,153.24,7,BA,barra da estiva,-13.62722007090909,-41.32746747590909
BA,barra do choca,3,877.49,292.5,3,BA,barra do choca,-14.768584455897436,-40.641608972307694
BA,barra do mendes,3,383.28,127.76,3,BA,barra do mendes,-11.817681813125,-42.059329115625
BA,barra do tarrachil,1,359.94,119.98,3,BA,barra do tarrachil,-13.00910118,-38.52597899
BA,barreiras,51,12945.76,248.96,52,BA,barreiras,-12.148965298940217,-44.957802334891305
BA,barro alto,2,132.18,66.09,2,BA,barro alto,-11.769488443636362,-41.90185348
BA,barro preto,1,146.58,146.58,1,BA,barro preto,-14.8088448825,-39.473220745
BA,barrocas,1,118.26,118.26,1,BA,barrocas,-11.531524988125,-39.077284184999996
BA,belmonte,1,60.05,60.05,1,BA,belmonte,-15.861451440652173,-38.8787469676087
BA,belo campo,3,257.64,85.88,3,BA,belo campo,-15.03646855,-41.26032411789474
BA,biritinga,1,147.57,147.57,1,BA,biritinga,-11.621555344615386,-38.80810699076923
BA,bom jesus da lapa,9,3153.69,350.41,9,BA,bom jesus da lapa,-13.253728092708334,-43.412132415
BA,bom jesus da serra,2,322.29,161.14,2,BA,bom jesus da serra,-14.373533371666667,-40.507128485
BA,boninal,2,909.8,454.9,2,BA,boninal,-12.710701915555555,-41.830396944444445
BA,bonito,2,435.25,217.62,2,BA,bonito,-11.96900875,-41.26637704157895
BA,boquira,1,95.67,95.67,1,BA,boquira,-12.810420911333333,-42.721960452666664
BA,botupora,1,346.51,346.51,1,BA,botupora,-13.378844324210526,-42.52232962210526
BA,brejoes,1,143.34,143.34,1,BA,brejoes,-13.102729228571429,-39.793072654285716
BA,brejolandia,1,34.78,34.78,1,BA,brejolandia,-12.4850033325,-43.960583865
BA,brotas de macaubas,1,185.62,185.62,1,BA,brotas de macaubas,-12.004743563913042,-42.62192569521739
BA,brumado,21,3474.19,157.92,22,BA,brumado,-14.205390362783506,-41.67135151237114
BA,buerarema,4,1510.32,377.58,4,BA,buerarema,-14.957693379583333,-39.30371993791667
BA,buritirama,2,286.11,143.06,2,BA,buritirama,-10.714720124400001,-43.6342675312
BA,cabaceiras do paraguacu,1,48.69,48.69,1,BA,cabaceiras do paraguacu,-12.5480833325,-39.1667364925
BA,cachoeira,4,573.71,143.43,4,BA,cachoeira,-12.60053973862069,-38.96483689344828
BA,cacule,3,615.05,205.02,3,BA,cacule,-14.501317551282053,-42.223310384358975
BA,caem,1,80.02,80.02,1,BA,caem,-11.121504876666668,-40.37891561
BA,caetite,10,2300.45,230.04,10,BA,caetite,-14.0666830796,-42.48781592466666
BA,cairu,1,78.64,78.64,1,BA,cairu,-13.484783183333333,-39.025060356666664
BA,caldas do jorro,1,394.52,394.52,1,,,,
BA,caldeirao grande,3,417.25,139.08,3,BA,caldeirao grande,-11.10747177,-40.07027331
BA,camacan,6,1269.4,211.57,6,BA,camacan,-15.414473583833335,-39.4957309185
BA,camacari,59,8799.87,144.26,61,BA,camacari,-12.70259686900285,-38.32458670652422
BA,camamu,8,1897.51,210.83,9,BA,camamu,-13.95335870030303,-39.116264052727274
BA,campo alegre de lourdes,1,124.89,124.89,1,BA,campo alegre de lourdes,-9.513694503214285,-43.01830108285714
BA,campo formoso,10,4054.34,405.43,10,BA,campo formoso,-10.505535233953488,-40.32389630244186
BA,canapolis,1,30.44,30.44,1,BA,canapolis,-13.077449428,-44.201963394
BA,canarana,1,130.59,130.59,1,BA,canarana,-11.722303236842105,-41.76647619578947
BA,canavieiras,6,1017.29,169.55,6,BA,canavieiras,-15.673674983373495,-38.94959607987952
BA,candeal,1,176.65,176.65,1,BA,candeal,-11.807183358888889,-39.11963426333333
BA,candeias,12,1565.65,120.43,13,BA,candeias,-12.71898128810219,-38.58814865423357
BA,candido sales,3,472.52,157.51,3,BA,candido sales,-15.480720300714285,-41.24493798142857
BA,cansancao,5,998.37,142.62,7,BA,cansancao,-10.670325287428572,-39.496988156571426
BA,canudos,1,232.89,232.89,1,BA,canudos,-9.900410456857143,-39.034089321904766
BA,capela do alto alegre,1,56.78,56.78,1,BA,capela do alto alegre,-11.671606778387098,-39.835906408387096
BA,capim grosso,5,660.78,132.16,5,BA,capim grosso,-11.3806206725,-40.01146557430556
BA,caraibas,1,249.8,249.8,1,BA,caraibas,-14.693832896666668,-41.266481203333335
BA,caravelas,3,466.78,155.59,3,BA,caravelas,-17.7297229108,-39.264415346
BA,carinhanha,2,451.5,225.75,2,BA,carinhanha,-14.293488567058823,-43.771013648823526
BA,carnaiba do sertao,1,99.1,99.1,1,BA,carnaiba do sertao,-9.589271582,-40.42544551
BA,casa nova,5,1269.54,211.59,6,BA,casa nova,-9.280912261555555,-40.977347584722224
BA,castro alves,2,101.76,50.88,2,BA,castro alves,-12.766519043703704,-39.422260675185186
BA,catu,10,1763.24,176.32,10,BA,catu,-12.363611347551021,-38.38209317622449
BA,catu de abrantes,2,1295.86,647.93,2,BA,catu de abrantes,-12.853736102,-38.283570584
BA,caturama,2,122.68,61.34,2,BA,caturama,-13.33060236,-42.292799374615385
BA,central,1,142.89,142.89,1,BA,central,-11.136794426666667,-42.106337292
BA,chorrocho,1,73.18,73.18,1,BA,chorrocho,-8.940867028384615,-39.071657914615386
BA,cicero dantas,9,4156.38,415.64,10,BA,cicero dantas,-10.59357772125,-38.38387751553571
BA,cipo,1,230.12,230.12,1,BA,cipo,-11.10047554,-38.515892773703705
BA,coaraci,4,1468.12,367.03,4,BA,coaraci,-14.635468320303032,-39.55589282333333
BA,cocos,1,73.27,73.27,1,BA,cocos,-14.18051532657143,-44.53527968457143
BA,conceicao da feira,2,802.95,401.48,2,BA,conceicao da feira,-12.479443572272727,-38.994271195
BA,conceicao do almeida,1,120.14,120.14,1,BA,conceicao do almeida,-12.779370245,-39.16675491272727
BA,conceicao do coite,9,1307.04,145.23,9,BA,conceicao do coite,-11.573641311486487,-39.27682574108108
BA,conceicao do jacuipe,3,247.08,82.36,3,BA,conceicao do jacuipe,-12.331183306326531,-38.76631112346939
BA,conde,2,881.52,440.76,2,BA,conde,-11.816688191034483,-37.618178794827585
BA,condeuba,1,73.83,73.83,1,BA,condeuba,-14.899986570714287,-41.96946977928571
BA,coracao de maria,1,306.06,306.06,1,BA,coracao de maria,-12.2221069,-38.76076667454545
BA,cordeiros,1,363.64,363.64,1,BA,cordeiros,-15.0391305125,-41.9342491225
BA,coribe,6,816.78,102.1,8,BA,coribe,-13.826367693666667,-44.455369997333335
BA,coronel joao sa,3,689.71,229.9,3,BA,coronel joao sa,-10.285773794210527,-37.92623646
BA,correntina,2,188.11,94.06,2,BA,correntina,-13.351613408055556,-44.651659425
BA,cotegipe,1,103.15,103.15,1,BA,cotegipe,-11.979841006666668,-44.25783023333333
BA,cravolandia,1,187.83,187.83,1,BA,cravolandia,-13.35856308,-39.813674664000004
BA,crisopolis,4,293.57,73.39,4,BA,crisopolis,-11.510296774814814,-38.151409708888885
BA,cristopolis,2,113.95,56.97,2,BA,cristopolis,-12.234422213333334,-44.408199878333335
BA,cruz das almas,17,2486.57,138.14,18,BA,cruz das almas,-12.669575109829545,-39.10375410943182
BA,curaca,3,542.24,180.75,3,BA,curaca,-8.974658487608696,-39.88721901173913
BA,dario meira,2,225.26,112.63,2,BA,dario meira,-14.431717563000001,-39.90512512
BA,dias d avila,1,61.79,61.79,1,BA,dias d avila,-12.61247559923077,-38.29848074923077
BA,dias d'avila,23,3085.76,128.57,24,BA,dias d'avila,-12.613039599433963,-38.30245126783019
BA,dom basilio,3,172.71,57.57,3,BA,dom basilio,-13.78287573,-41.76914809
BA,dom macedo costa,1,82.83,82.83,1,BA,dom macedo costa,-12.906137933333333,-39.19207625666667
BA,elisio medrado,2,118.75,59.38,2,BA,elisio medrado,-12.945754381666667,-39.52141988333333
BA,entre rios,6,1241.52,206.92,6,BA,entre rios,-11.94442648922078,-38.08300377207792
BA,erico cardoso,1,24.88,24.88,1,BA,erico cardoso,-13.427983031666665,-42.128223866666666
BA,esplanada,5,1808.34,361.67,5,BA,esplanada,-11.796712937021278,-37.94786518468085
BA,euclides da cunha,5,625.62,125.12,5,BA,euclides da cunha,-10.507191536142857,-39.01134193671429
BA,eunapolis,37,7916.78,208.34,38,BA,eunapolis,-16.36908563937255,-39.58292350019608
BA,fatima,2,522.28,261.14,2,BA,fatima,-10.5953026775,-38.21319730583333
BA,feira de santana,176,32466.8,175.5,185,BA,feira de santana,-12.25032352880292,-38.95768768818978
BA,filadelfia,1,99.16,99.16,1,BA,filadelfia,-10.742823255882353,-40.132000466470586
BA,formosa do rio preto,3,1628.16,542.72,3,BA,formosa do rio preto,-11.033737883214286,-45.21290332464286
BA,gandu,4,507.45,126.86,4,BA,gandu,-13.744773850833333,-39.48653272633333
BA,gentio do ouro,1,121.1,121.1,1,BA,gentio do ouro,-11.430397447777779,-42.50553281777778
BA,gongogi,1,52.13,52.13,1,BA,gongogi,-14.3239052525,-39.46624427125
BA,governador mangabeira,1,116.26,116.26,1,BA,governador mangabeira,-12.601369094545454,-39.04478860181818
BA,guanambi,37,5801.06,156.79,37,BA,guanambi,-14.222684442091255,-42.7824695186692
BA,guaratinga,2,76.57,38.28,2,BA,guaratinga,-16.583956840400003,-39.7814969348
BA,heliopolis,1,169.28,169.28,1,BA,heliopolis,-10.677941854285715,-38.283277988571434
BA,humildes,1,360.81,360.81,1,,,,
BA,iacu,4,499.85,124.96,4,BA,iacu,-12.772346988571428,-40.208508460000004
BA,ibiajara,1,65.8,65.8,1,BA,ibiajara,13.001420175,-23.583939074499998
BA,ibiassuce,2,218.42,109.21,2,BA,ibiassuce,-14.27149480090909,-42.256908904545455
BA,ibicarai,5,559.6,111.92,5,BA,ibicarai,-14.865136454166667,-39.59162777875
BA,ibicoara,3,359.84,119.95,3,BA,ibicoara,-13.38523119625,-41.31986216875
BA,ibipeba,1,86.39,86.39,1,BA,ibipeba,-11.613739673333333,-42.0590450975
BA,ibipitanga,2,396.72,198.36,2,BA,ibipitanga,-12.880610294375,-42.48713539
BA,ibiraja,1,330.14,165.07,2,BA,ibiraja,-17.189354636666668,-40.25388031333333
BA,ibirapua,1,141.42,141.42,1,BA,ibirapua,-17.686553578125,-40.10847365
BA,ibirataia,2,91.72,45.86,2,BA,ibirataia,-14.068210015714286,-39.63984600928571
BA,ibitiara,1,157.28,157.28,1,BA,ibitiara,-12.628275564,-42.234686958
BA,ibitira,1,421.03,421.03,1,BA,ibitira,-14.205943535,-42.11626073
BA,ibitita,1,1534.58,1534.58,1,BA,ibitita,-11.543112976875,-41.975089876874996
BA,ibotirama,7,3233.2,461.89,7,BA,ibotirama,-12.1768776945,-43.216045366833335
BA,ichu,2,197.92,98.96,2,BA,ichu,-11.74786637875,-39.192356475
BA,igapora,1,56.78,56.78,1,BA,igapora,-13.776200517619047,-42.71394018714285
BA,igrapiuna,1,52.05,52.05,1,BA,igrapiuna,-13.8229983225,-39.14183035875
BA,iguai,2,587.14,293.57,2,BA,iguai,-14.752474673333333,-40.08809401
BA,ilheus,72,11018.06,153.03,72,BA,ilheus,-14.802036541444954,-39.04026241130734
BA,inhambupe,7,1346.98,192.43,7,BA,inhambupe,-11.788231420847458,-38.355279691525425
BA,ipecaeta,1,40.19,40.19,1,BA,ipecaeta,-12.310288286666667,-39.30981818666667
BA,ipiau,8,1088.03,136.0,8,BA,ipiau,-14.134640617916666,-39.73656211652778
BA,ipira,7,3555.23,507.89,7,BA,ipira,-12.157438889607842,-39.740223750588235
BA,ipupiara,1,525.85,525.85,1,BA,ipupiara,-11.819542737586207,-42.61678622551724
BA,iramaia,2,199.37,99.68,2,BA,iramaia,-13.29370858642857,-40.95756033928571
BA,iraquara,5,510.63,102.13,5,BA,iraquara,-12.248284806190476,-41.605179083809524
BA,irara,2,222.82,111.41,2,BA,irara,-12.044430002857142,-38.76584064428572
BA,irece,12,2660.91,204.69,13,BA,irece,-11.303887341933335,-41.85635341133334
BA,itabatan,2,196.4,98.2,2,BA,itabatan,-11.937840920000001,-36.92079558569231
BA,itabela,4,529.97,132.49,4,BA,itabela,-16.57695100676923,-39.559278108
BA,itaberaba,10,1286.19,128.62,10,BA,itaberaba,-12.526602652047243,-40.306329307165356
BA,itabuna,59,10149.32,166.38,61,BA,itabuna,-14.794456015850555,-39.27650023111288
BA,itacare,8,1032.79,129.1,8,BA,itacare,-14.279930594390244,-38.99403358317073
BA,itagi,2,164.64,82.32,2,BA,itagi,-14.163787860384616,-40.005503153846156
BA,itagiba,2,144.86,72.43,2,BA,itagiba,-14.264064142222221,-39.83829328444445
BA,itagimirim,1,193.06,193.06,1,BA,itagimirim,-16.088493171875,-39.614599079375
BA,itaguacu da bahia,1,267.89,267.89,1,BA,itaguacu da bahia,-11.009400431666668,-42.399544345
BA,itaju do colonia,1,56.69,56.69,1,BA,itaju do colonia,-15.152278293333334,-39.67606517833334
BA,itajuipe,3,852.28,284.09,3,BA,itajuipe,-14.674950031724139,-39.37679716482758
BA,itamaraju,12,1883.32,156.94,12,BA,itamaraju,-17.037479581506847,-39.53348039212329
BA,itamari,3,324.99,108.33,3,BA,itamari,-13.779466036666667,-39.68475227777778
BA,itambe,3,478.76,159.59,3,BA,itambe,-15.246442600000002,-40.62361258388889
BA,itamira,1,100.2,50.1,2,BA,itamira,-13.819389461999998,-39.442756918
BA,itanhem,1,278.66,278.66,1,BA,itanhem,-17.153715514,-40.330797540999995
BA,itaparica,1,188.36,188.36,1,BA,itaparica,-12.899495749285714,-38.668208154285715
BA,itape,1,258.56,258.56,1,BA,itape,-14.895201182,-39.426035402000004
BA,itapetinga,17,3169.5,176.08,18,BA,itapetinga,-15.250539108881117,-40.244380926503496
BA,itapicuru,2,181.54,90.77,2,BA,itapicuru,-11.310017157499999,-38.219604770000004
BA,itapitanga,3,264.09,88.03,3,BA,itapitanga,-14.429705148461538,-39.564464102307696
BA,itarantim,3,574.72,191.57,3,BA,itarantim,-15.654611953448276,-40.06355502103449
BA,itatim,3,400.46,133.49,3,BA,itatim,-12.710002607142856,-39.69802830142857
BA,itirucu,3,845.37,281.79,3,BA,itirucu,-13.532932952380953,-40.15095322380952
BA,itiuba,4,387.5,96.88,4,BA,itiuba,-10.693027674705881,-39.85304863205882
BA,itororo,2,709.37,354.68,2,BA,itororo,-15.107704336842106,-40.06670156973684
BA,ituacu,3,478.07,159.36,3,BA,ituacu,-13.81502511882353,-41.29904114882353
BA,itubera,3,181.22,60.41,3,BA,itubera,-13.734897781612904,-39.146878177096774
BA,jacaraci,3,1040.27,260.07,4,BA,jacaraci,-14.842836632105262,-42.42402556368421
BA,jacobina,23,7766.1,323.59,24,BA,jacobina,-11.186623499536083,-40.50847412860825
BA,jacuipe,1,34.78,34.78,1,,,,
BA,jaguaquara,2,237.14,118.57,2,BA,jaguaquara,-13.529339631269842,-39.975777546507935
BA,jandaira,1,77.98,77.98,1,BA,jandaira,-11.563851855555555,-37.783090344444446
BA,jaua,1,177.38,177.38,1,,,,
BA,jequie,34,5766.87,169.61,34,BA,jequie,-13.862141885625,-40.08183022865384
BA,jeremoabo,6,1126.37,187.73,6,BA,jeremoabo,-9.948403273,-38.68649435
BA,jiquirica,1,519.93,519.93,1,BA,jiquirica,-13.255143036666666,-39.57410719333333
BA,joao dourado,1,36.69,36.69,1,BA,joao dourado,-11.346957471764705,-41.66038982235294
BA,juazeiro,44,8954.58,203.51,44,BA,juazeiro,-9.425036831772728,-40.5013571539899
BA,jucurucu,2,478.31,239.16,2,BA,jucurucu,-16.841969975454546,-40.15036091454545
BA,jussari,2,213.19,106.6,2,BA,jussari,-14.729105633333335,-39.769426610000004
BA,jussiape,1,53.79,53.79,1,BA,jussiape,-13.515574504999998,-41.5930672
BA,lagoa real,1,459.92,459.92,1,BA,lagoa real,-14.036183095,-42.141698973333334
BA,lamarao,1,81.34,81.34,1,BA,lamarao,-11.7956499,-38.88365094
BA,lauro de freitas,73,11270.58,150.27,75,BA,lauro de freitas,-12.88544602153169,-38.31440033679578
BA,lencois,1,307.68,307.68,1,BA,lencois,-12.54368197590909,-41.381711270454545
BA,livramento de nossa senhora,5,777.57,155.51,5,BA,livramento de nossa senhora,-13.652157490428571,-41.84866906642857
BA,luis eduardo magalhaes,36,9538.69,264.96,36,BA,luis eduardo magalhaes,-12.089212291423076,-45.791707732
BA,macaubas,9,1227.15,136.35,9,BA,macaubas,-13.02062557826087,-42.69259434086956
BA,madre de deus,7,826.74,118.11,7,BA,madre de deus,-12.742075539545453,-38.61494565613636
BA,maiquinique,1,139.48,139.48,1,BA,maiquinique,-15.625523593125,-40.263764580625
BA,mairi,2,974.31,487.16,2,BA,mairi,-11.71051300185185,-40.14955057407407
BA,mansidao,1,65.79,65.79,1,BA,mansidao,-10.719694073333335,-44.03579799333334
BA,maracas,4,877.09,175.42,5,BA,maracas,-13.439362406458335,-40.433543677708336
BA,maragogipe,2,195.04,97.52,2,BA,maragogipe,-12.784700443636364,-38.91606545727273
BA,mascote,2,158.99,79.5,2,BA,mascote,-15.58826314846154,-39.37354753076923
BA,mata de sao joao,11,1679.07,139.92,12,BA,mata de sao joao,-12.529377334827586,-38.27773977896552
BA,medeiros neto,6,797.29,113.9,7,BA,medeiros neto,-17.3748933818,-40.2205986284
BA,miguel calmon,5,787.81,157.56,5,BA,miguel calmon,-11.429867463548387,-40.59714744225806
BA,milagres,2,563.44,281.72,2,BA,milagres,-12.87253794611111,-39.85120963777778
BA,monte gordo,2,360.43,180.22,2,BA,monte gordo,-12.628220032,-38.076711259
BA,monte santo,1,40.0,40.0,1,BA,monte santo,-10.43870825125,-39.331646335625
BA,morpara,2,393.73,196.86,2,BA,morpara,-11.5632173575,-43.2773602275
BA,morro de sao paulo,1,832.0,832.0,1,BA,morro de sao paulo,-18.430469465,-42.752242620000004
BA,morro do chapeu,7,737.84,105.41,7,BA,morro do chapeu,-11.547849955869564,-41.15940495565218
BA,mucuge,1,285.74,285.74,1,BA,mucuge,-13.00715487368421,-41.37169427789473
BA,mucuri,7,2385.99,340.86,7,BA,mucuri,-18.069019598548387,-39.57593015129032
BA,mundo novo,1,157.28,157.28,1,BA,mundo novo,-11.883726816666666,-40.49131965
BA,muquem do sao francisco,2,104.21,52.1,2,BA,muquem do sao francisco,-12.089731871666666,-43.55182024500001
BA,muritiba,1,222.63,222.63,1,BA,muritiba,-12.622672843428571,-38.989528932285715
BA,mutuipe,4,580.09,145.02,4,BA,mutuipe,-13.228061626363637,-39.50596456727273
BA,nazare,3,504.82,168.27,3,BA,nazare,-13.024782350508476,-39.0107974540678
BA,nova canaa,2,210.08,105.04,2,BA,nova canaa,-14.805408359444446,-40.14342682222222
BA,nova fatima,1,188.29,188.29,1,BA,nova fatima,-11.608046455555556,-39.63091044666666
BA,nova redencao,1,36.69,36.69,1,BA,nova redencao,-12.814586190666667,-41.06946099866666
BA,nova soure,3,325.43,108.48,3,BA,nova soure,-11.240484234642858,-38.481211675357144
BA,nova vicosa,1,271.01,271.01,1,BA,nova vicosa,-17.89722318769231,-39.39202754423077
BA,nucleo residencial pilar,7,2417.35,302.17,8,,,,
BA,olindina,3,284.41,94.8,3,BA,olindina,-11.363708328947368,-38.32981723842105
BA,oliveira dos brejinhos,2,185.84,92.92,2,BA,oliveira dos brejinhos,-12.316542601428571,-42.88450014809524
BA,palmeiras,2,292.3,146.15,2,BA,palmeiras,-12.51690789,-41.57780784
BA,paramirim,5,555.47,111.09,5,BA,paramirim,-13.452902760606062,-42.23851051727273
BA,paripiranga,2,156.65,78.32,2,BA,paripiranga,-10.679621048965519,-37.86647570931034
BA,pau brasil,1,315.92,315.92,1,BA,pau brasil,-15.464653780833332,-39.653333815
BA,paulo afonso,39,7842.13,201.08,39,BA,paulo afonso,-9.407354484135416,-38.222568282630206
BA,pedrao,1,343.71,343.71,1,BA,pedrao,-12.14615675,-38.64382697
BA,piata,2,131.35,65.68,2,BA,piata,-13.110447784444444,-41.66421083111111
BA,pilao arcado,4,364.68,91.17,4,BA,pilao arcado,-9.995800394947368,-42.48557465052632
BA,pindai,2,171.54,85.77,2,BA,pindai,-14.4879345,-42.68529120363637
BA,pindobacu,3,243.72,81.24,3,BA,pindobacu,-10.74114926076923,-40.36934427538461
BA,pintadas,2,520.5,260.25,2,BA,pintadas,-11.812442866206897,-39.90695020103448
BA,pirai do norte,1,46.28,46.28,1,BA,pirai do norte,-13.76916565,-39.37793731166666
BA,piripa,2,110.84,55.42,2,BA,piripa,-14.943193199333333,-41.71750233066667
BA,piritiba,5,630.22,105.04,6,BA,piritiba,-11.730443877692307,-40.555310497307694
BA,planaltino,1,254.44,254.44,1,BA,planaltino,-13.401466026,-40.380080886
BA,planalto,1,116.45,116.45,1,BA,planalto,-14.944962104242423,-40.66389552818182
BA,pocoes,2,399.2,199.6,2,BA,pocoes,-14.527691019186046,-40.36869686988372
BA,pojuca,13,1820.78,140.06,13,BA,pojuca,-12.426056086862745,-38.32759518882353
BA,ponto novo,1,377.0,377.0,1,BA,ponto novo,-10.876823651764706,-40.12815421176471
BA,porto seguro,37,14364.42,359.11,40,BA,porto seguro,-16.434636278636365,-39.076825468424246
BA,posto da mata,4,620.13,155.03,4,BA,posto da mata,-17.887107585277775,-39.86092431555556
BA,potiragua,7,644.7,92.1,7,BA,potiragua,-15.62899913,-39.796531187619046
BA,prado,5,1234.59,246.92,5,BA,prado,-17.327091083541667,-39.22473416416667
BA,presidente dutra,3,246.62,82.21,3,BA,presidente dutra,-11.29553045625,-41.98843519375
BA,presidente janio quadros,1,173.88,173.88,1,BA,presidente janio quadros,-14.685719322222221,-41.68069668555555
BA,presidente tancredo neves,4,325.58,81.4,4,BA,presidente tancredo neves,-13.454457694705882,-39.42532888294118
BA,queimadas,4,937.57,234.39,4,BA,queimadas,-10.977713029166667,-39.62699312666667
BA,quijingue,2,268.06,134.03,2,BA,quijingue,-10.753086798333333,-39.20898106833334
BA,quixabeira,3,309.42,103.14,3,BA,quixabeira,-11.4192002175,-40.123796833
BA,remanso,5,487.99,97.6,5,BA,remanso,-9.621103587254238,-42.08142002576271
BA,retirolandia,1,117.0,117.0,1,BA,retirolandia,-11.49380150625,-39.4222128825
BA,riachao das neves,1,247.77,123.88,2,BA,riachao das neves,-11.7499842775,-44.91038945375
BA,riachao do jacuipe,4,2613.59,522.72,5,BA,riachao do jacuipe,-11.808401474146342,-39.382590171951215
BA,riacho de santana,4,1302.47,325.62,4,BA,riacho de santana,-13.611724397105263,-42.93668733236842
BA,ribeira do amparo,1,61.79,61.79,1,BA,ribeira do amparo,-10.98514431,-38.39497688
BA,ribeira do pombal,8,782.36,97.8,8,BA,ribeira do pombal,-10.858286952526317,-38.53720371863158
BA,rio de contas,3,290.72,96.91,3,BA,rio de contas,-13.570078561428572,-41.80581449333334
BA,rio do antonio,2,301.75,150.88,2,BA,rio do antonio,-14.401883404285714,-42.077796147142855
BA,rio do pires,3,731.25,182.81,4,BA,rio do pires,-13.124566062272727,-42.284997767727276
BA,rio real,3,480.6,160.2,3,BA,rio real,-11.485884600263159,-37.93187571921053
BA,rodelas,3,464.75,154.92,3,BA,rodelas,-8.8597038142,-38.762902412
BA,ruy barbosa,7,921.15,131.59,7,BA,ruy barbosa,-12.284027281272728,-40.49716854109091
BA,salinas da margarida,1,82.12,82.12,1,BA,salinas da margarida,-12.874150546153846,-38.760660919230766
BA,salobro,1,89.15,89.15,1,BA,salobro,-11.86045965,-41.75396976
BA,salvador,1202,216772.4,175.1,1238,BA,salvador,-12.958739640643326,-38.46267402906594
BA,santa brigida,1,104.73,104.73,1,BA,santa brigida,-9.734834691571427,-38.126922355714285
BA,santa cruz cabralia,5,605.18,121.04,5,BA,santa cruz cabralia,-16.22749515042553,-39.018393301702126
BA,santa ines,3,351.77,117.26,3,BA,santa ines,-13.293075495555556,-39.819186546666664
BA,santa maria da vitoria,13,2185.07,168.08,13,BA,santa maria da vitoria,-13.388484723125,-44.2004353865
BA,santa teresinha,2,338.1,169.05,2,BA,santa teresinha,-12.740941898333332,-39.51927189
BA,santaluz,3,333.97,111.32,3,BA,santaluz,-11.25345306021739,-39.377920455869564
BA,santana,3,258.77,86.26,3,BA,santana,-12.9806794875,-44.04973004159091
BA,santana do sobrado,1,54.82,54.82,1,BA,santana do sobrado,0.011601900000000054,-33.72262810875
BA,santo amaro,9,2066.74,206.67,10,BA,santo amaro,-12.550955409733334,-38.70658835493333
BA,santo antonio de jesus,28,5146.04,171.53,30,BA,santo antonio de jesus,-12.970425598,-39.231196873461535
BA,santo estevao,5,1226.69,245.34,5,BA,santo estevao,-12.434041159791667,-39.25378618375
BA,sao desiderio,1,161.19,161.19,1,BA,sao desiderio,-12.389320841111111,-45.00896585444444
BA,sao domingos,3,239.44,79.81,3,BA,sao domingos,-11.463721164,-39.526709739
BA,sao felipe,2,827.01,413.5,2,BA,sao felipe,-12.846328847999999,-39.0892732265
BA,sao felix,1,44.69,44.69,1,BA,sao felix,-12.606873632500001,-38.9696517875
BA,sao felix do coribe,1,266.06,266.06,1,BA,sao felix do coribe,-13.403363681052632,-44.194497264210526
BA,sao francisco do conde,3,367.33,122.44,3,BA,sao francisco do conde,-12.626127480256411,-38.67484853641026
BA,sao jose da vitoria,2,225.76,112.88,2,BA,sao jose da vitoria,-15.084174125714286,-39.33973017857143
BA,sao miguel das matas,1,221.0,221.0,1,BA,sao miguel das matas,-13.048160805,-39.455679247
BA,sao sebastiao do passe,5,550.53,110.11,5,BA,sao sebastiao do passe,-12.49762904511111,-38.78204182088889
BA,sapeacu,2,303.47,151.74,2,BA,sapeacu,-12.730728445,-39.18682766875
BA,satiro dias,1,41.29,41.29,1,BA,satiro dias,-11.604685826666667,-38.58251629
BA,saubara,1,228.6,228.6,1,BA,saubara,-12.744183047333333,-38.76880365066667
BA,saude,2,169.98,84.99,2,BA,saude,-10.940275441666666,-40.421818583333334
BA,seabra,6,1148.26,191.38,6,BA,seabra,-12.419258868,-41.77239482973913
BA,senhor do bonfim,18,3241.66,170.61,19,BA,senhor do bonfim,-10.460625240833332,-40.186555495885415
BA,sento se,1,76.08,76.08,1,BA,sento se,-9.741319117857143,-41.881366056428575
BA,serra do ramalho,4,406.72,101.68,4,BA,serra do ramalho,-13.540837994705882,-43.58249481823529
BA,serra dourada,2,234.2,117.1,2,BA,serra dourada,-12.759790285185185,-43.94615930074074
BA,serrinha,14,2481.6,165.44,15,BA,serrinha,-11.661519799032257,-39.00547368233871
BA,serrolandia,3,427.35,142.45,3,BA,serrolandia,-11.4193113796875,-40.2909897921875
BA,simoes filho,21,5223.07,248.72,21,BA,simoes filho,-12.79216893842932,-38.391721555183246
BA,sitio do quinto,2,131.65,65.82,2,BA,sitio do quinto,-10.359920566190477,-38.18051064380953
BA,sobradinho,5,783.74,156.75,5,BA,sobradinho,-9.470888488436362,-40.81242652072727
BA,tabocas do brejo velho,3,199.96,66.65,3,BA,tabocas do brejo velho,-12.688345832307693,-44.01763042307693
BA,taboquinhas,1,303.27,303.27,1,,,,
BA,tanhacu,4,609.8,152.45,4,BA,tanhacu,-14.059498004444444,-41.23367320333333
BA,tanque novo,3,447.39,149.13,3,BA,tanque novo,-13.548823451666667,-42.496252141666666
BA,tapiramuta,2,1476.9,738.45,2,BA,tapiramuta,-11.84736758409091,-40.79258113909091
BA,teixeira de freitas,28,4218.39,145.46,29,BA,teixeira de freitas,-17.536279736093295,-39.743395914839645
BA,teodoro sampaio,1,87.28,87.28,1,BA,teodoro sampaio,-12.304098699999999,-38.6407380925
BA,teofilandia,3,236.92,78.97,3,BA,teofilandia,-11.486968749166666,-38.995076016666665
BA,teolandia,4,260.77,65.19,4,BA,teolandia,-12.998720987142857,-39.350439689999995
BA,trancoso,6,995.19,165.86,6,BA,trancoso,-16.584474622400002,-39.124767024
BA,tucano,8,969.58,121.2,8,BA,tucano,-10.971735279464285,-38.78937531803571
BA,uaua,4,618.18,154.54,4,BA,uaua,-9.842144805352941,-39.47921193705882
BA,ubaira,6,884.91,147.48,6,BA,ubaira,-13.267760330769232,-39.66256622076923
BA,ubaitaba,4,667.93,166.98,4,BA,ubaitaba,-14.311564261428572,-39.31864786457143
BA,ubata,1,210.18,210.18,1,BA,ubata,-14.213475857317073,-39.52266195
BA,uibai,4,639.36,159.84,4,BA,uibai,-11.331133998235295,-42.13307878941176
BA,umburanas,1,123.75,123.75,1,BA,umburanas,-10.731455414444445,-41.32330803222222
BA,una,5,610.34,122.07,5,BA,una,-15.291868913333332,-39.0742540439394
BA,urandi,2,767.81,383.9,2,BA,urandi,-14.767999926666667,-42.65573249111111
BA,urucuca,2,257.27,128.64,2,BA,urucuca,-14.590666291290324,-39.286268277096774
BA,utinga,5,586.45,117.29,5,BA,utinga,-12.079938445161291,-41.09528006032259
BA,valenca,32,7406.42,211.61,35,BA,valenca,-13.365998465913044,-39.069185968
BA,valente,6,3614.1,401.57,9,BA,valente,-11.411074224666665,-39.46263618288889
BA,varzea do poco,1,73.83,73.83,1,BA,varzea do poco,-11.527301338333332,-40.31707734416667
BA,varzea nova,1,108.53,108.53,1,BA,varzea nova,-11.25765693857143,-40.943623300714286
BA,varzedo,1,65.53,65.53,1,BA,varzedo,-12.975637876666667,-39.39517292666667
BA,vera cruz,7,1394.82,199.26,7,BA,vera cruz,-12.986771012941176,-38.642826578431375
BA,vereda,2,356.65,178.32,2,BA,vereda,-17.25641672,-40.02070527
BA,vitoria da conquista,89,19549.93,217.22,90,BA,vitoria da conquista,-14.859482062821472,-40.84327792518103
BA,wagner,1,147.69,147.69,1,BA,wagner,-12.28223592,-41.16785383444445
BA,wanderley,2,333.11,166.56,2,BA,wanderley,-12.121260262142856,-43.89004275285714
BA,wenceslau guimaraes,1,137.5,137.5,1,BA,wenceslau guimaraes,-13.679623343333333,-39.48948133666667
BA,xique-xique,3,230.56,76.85,3,BA,xique-xique,-10.823081992999999,-42.726976030833335
CE,abaiara,2,332.15,166.08,2,CE,abaiara,-7.3559700695,-39.043266845
CE,acarau,6,1639.94,204.99,8,CE,acarau,-2.8907840977222223,-40.11237575111111
CE,acopiara,7,901.67,128.81,7,CE,acopiara,-6.093947222568182,-39.44812687181818
CE,aiuaba,1,147.38,147.38,1,CE,aiuaba,-6.591323153333334,-40.147776588333336
CE,altaneira,2,496.26,248.13,2,CE,altaneira,-7.000059107333333,-39.73905978222222
CE,alto santo,3,801.01,267.0,3,CE,alto santo,-5.519468742083333,-38.267590694166664
CE,amanari,1,419.39,419.39,1,CE,amanari,-3.504514941,-39.57289794
CE,amontada,1,81.57,81.57,1,CE,amontada,-3.366041624272727,-39.82983382545455
CE,antonina do norte,1,130.58,130.58,1,CE,antonina do norte,-6.775341952571429,-39.988182527142854
CE,apuiares,2,421.56,210.78,2,CE,apuiares,-3.9469612556,-39.431696774
CE,aquiraz,2,478.65,239.32,2,CE,aquiraz,-3.911199073666667,-38.37729051583333
CE,aracati,22,3596.25,163.47,22,CE,aracati,-4.56725708846988,-37.7631638126506
CE,aracoiaba,3,592.44,197.48,3,CE,aracoiaba,-4.398558702333333,-38.76904696166667
CE,araripe,2,323.37,161.68,2,CE,araripe,-7.1963955058125,-40.14158282125
CE,aratuba,2,429.74,214.87,2,CE,aratuba,-4.419358212272727,-39.04633611909091
CE,arneiroz,2,462.53,231.26,2,CE,arneiroz,-6.32594369075,-40.1561398375
CE,assare,1,118.26,118.26,1,CE,assare,-6.875517170777778,-39.87090880388889
CE,aurora,3,444.7,148.23,3,CE,aurora,-6.94438450940909,-38.96645094590909
CE,banabuiu,1,139.61,139.61,1,CE,banabuiu,-5.304981732818182,-38.91955390272727
CE,barbalha,6,1515.41,252.57,6,CE,barbalha,-7.310588231086207,-39.3026731
CE,barreira,1,142.01,142.01,1,CE,barreira,-4.291005351777778,-38.642085653888884
CE,barro,4,769.02,192.26,4,CE,barro,-7.17483179373913,-38.77837706826087
CE,baturite,3,551.09,183.7,3,CE,baturite,-4.334494027814815,-38.878077511851856
CE,beberibe,3,1823.91,607.97,3,CE,beberibe,-4.183832622523809,-38.12253291428571
CE,bela cruz,4,1024.47,256.12,4,CE,bela cruz,-3.0560327591304346,-40.171866658695656
CE,boa viagem,3,546.76,182.25,3,CE,boa viagem,-5.124810592461539,-39.731213736730766
CE,brejo santo,10,1949.35,194.94,10,CE,brejo santo,-7.489348910433334,-38.983970971
CE,camocim,8,2078.27,259.78,8,CE,camocim,-2.9030356681232874,-40.84688864835616
CE,campos sales,4,1853.78,463.45,4,CE,campos sales,-7.075048603521739,-40.373832032173915
CE,caninde,6,814.2,135.7,6,CE,caninde,-4.3557615097735845,-39.31434671849056
CE,capistrano,1,72.16,72.16,1,CE,capistrano,-4.4680531641538455,-38.90113421153846
CE,caridade,1,99.9,99.9,1,CE,caridade,-4.233492373090909,-39.200734033636365
CE,carire,3,236.28,78.76,3,CE,carire,-3.9496359103333334,-40.476331665
CE,caririacu,2,519.14,259.57,2,CE,caririacu,-7.041397191307693,-39.289974173846154
CE,carius,3,618.69,206.23,3,CE,carius,-6.53690718675,-39.49674751875
CE,carnaubal,2,265.88,132.94,2,CE,carnaubal,-4.16431005,-40.93904019294117
CE,cascavel,5,1254.75,250.95,5,CE,cascavel,-4.141781135375,-38.229459498
CE,catarina,3,295.29,98.43,3,CE,catarina,-6.133503909999999,-39.87784801
CE,caucaia,35,7092.72,202.65,35,CE,caucaia,-3.736617395725581,-38.65042640693023
CE,cedro,1,356.11,356.11,1,CE,cedro,-6.604065242354839,-39.06273541064517
CE,chaval,1,179.45,179.45,1,CE,chaval,-3.0363488849999998,-41.24244375181818
CE,chorozinho,1,398.42,398.42,1,CE,chorozinho,-4.314978502833333,-38.48867078166666
CE,coreau,1,54.81,54.81,1,CE,coreau,-3.5601679451333337,-40.65962916266667
CE,crateus,9,2779.4,308.82,9,CE,crateus,-5.1787446230131575,-40.66783855460526
CE,crato,19,3895.83,205.04,19,CE,crato,-7.234828977111765,-39.41211762917647
CE,croata,1,87.8,87.8,1,CE,croata,-4.402757030625001,-40.8973545325
CE,cruz,7,1772.55,253.22,7,CE,cruz,-2.91362729212069,-40.18923007293103
CE,deputado irapuan pinheiro,2,239.0,119.5,2,CE,deputado irapuan pinheiro,-5.870758885875,-39.2564675425
CE,dourado,1,218.58,218.58,1,,,,
CE,erere,1,226.23,226.23,1,CE,erere,-6.031735490142857,-38.348981107142855
CE,eusebio,13,2707.56,208.27,13,CE,eusebio,-3.8779594307692307,-38.458506282461535
CE,flores,1,149.9,149.9,1,CE,flores,-5.990887409,-38.35939366666667
CE,forquilha,4,477.45,119.36,4,CE,forquilha,-3.801583082074074,-40.263054555925926
CE,fortaleza,640,118646.07,182.53,650,CE,fortaleza,-3.764048776161812,-38.53440406337032
CE,fortim,1,205.53,205.53,1,CE,fortim,-4.454547476526316,-37.80298374578947
CE,frecheirinha,2,213.71,106.86,2,CE,frecheirinha,-3.758783845352941,-40.81633434470588
CE,granja,5,700.3,140.06,5,CE,granja,-3.1312053542,-40.84448568775
CE,groairas,1,178.5,178.5,1,CE,groairas,-3.9168006708,-40.38577721
CE,guaiuba,1,762.05,381.02,2,CE,guaiuba,-4.044580157,-38.643528055000004
CE,guaraciaba do norte,4,738.15,184.54,4,CE,guaraciaba do norte,-4.167697207891892,-40.76236617783784
CE,guassusse,1,169.92,169.92,1,CE,guassusse,-6.245285441,-38.91626639
CE,hidrolandia,6,1251.75,178.82,7,CE,hidrolandia,-4.408785634869565,-40.403910467391306
CE,horizonte,5,639.41,127.88,5,CE,horizonte,-4.099811512529412,-38.49316901411765
CE,ibiapina,3,289.34,96.45,3,CE,ibiapina,-3.92474917,-40.89326193666667
CE,ibicuitinga,1,54.62,54.62,1,CE,ibicuitinga,-4.968975917333333,-38.634604673333335
CE,icapui,5,611.59,122.32,5,CE,icapui,-4.700132818916667,-37.380917580833334
CE,ico,8,2355.35,294.42,8,CE,ico,-6.400583760923077,-38.85962797692308
CE,iguatu,14,4202.5,300.18,14,CE,iguatu,-6.362298390249999,-39.29894133535714
CE,independencia,1,136.05,136.05,1,CE,independencia,-5.3953636541875,-40.3090801575
CE,ipaporanga,2,453.81,226.9,2,CE,ipaporanga,-4.908117299222223,-40.76252126777778
CE,ipaumirim,1,307.11,307.11,1,CE,ipaumirim,-6.790646119666667,-38.71913222
CE,ipu,4,545.2,136.3,4,CE,ipu,-4.327033421021739,-40.71193181847826
CE,ipueiras,3,1805.78,601.93,3,CE,ipueiras,-4.54401606908,-40.7131821508
CE,iracema,2,308.77,154.38,2,CE,iracema,-5.8123921431875,-38.3130386975
CE,iraucuba,2,244.13,122.06,2,CE,iraucuba,-3.733604069,-39.786888891052634
CE,itaicaba,1,70.03,70.03,1,CE,itaicaba,-4.6874164856250005,-37.831472755
CE,itaitinga,4,704.17,176.04,4,CE,itaitinga,-3.9535898530689657,-38.52283994
CE,itapage,1,236.13,236.13,1,CE,itapage,-3.6841400626,-39.584267316
CE,itapaje,6,3425.08,570.85,6,CE,itapaje,-3.6867223656451613,-39.58402567548387
CE,itapipoca,11,1761.25,160.11,11,CE,itapipoca,-3.498701926704082,-39.58043933153061
CE,itapiuna,1,106.24,53.12,2,CE,itapiuna,-4.561107230857143,-38.92051494857143
CE,itarema,1,99.95,99.95,1,CE,itarema,-2.92861538625,-39.90975093375
CE,jaguaribara,1,125.23,125.23,1,CE,jaguaribara,-5.455589582666666,-38.462476360000004
CE,jaguaribe,5,861.8,172.36,5,CE,jaguaribe,-5.89879172269697,-38.635730664545456
CE,jaguaruana,4,1339.3,334.83,4,CE,jaguaruana,-4.84184162984375,-37.7811089971875
CE,jardim,2,473.44,236.72,2,CE,jardim,-7.586145933857144,-39.272968684285715
CE,jijoca de jericoacoara,4,1262.22,315.56,4,CE,jijoca de jericoacoara,-2.8729362962291667,-40.47067314729167
CE,juazeiro do norte,34,8586.07,252.53,34,CE,juazeiro do norte,-7.222952037260638,-39.315182372792556
CE,jucas,1,363.96,363.96,1,CE,jucas,-6.521882164166667,-39.524498718333334
CE,lages,1,78.1,78.1,1,CE,lages,-4.01278,-38.7
CE,lagoa do mato,1,61.62,61.62,1,CE,lagoa do mato,-4.2386007225,-39.066520895
CE,lavras da mangabeira,2,986.46,493.23,2,CE,lavras da mangabeira,-6.753572603,-38.9910074168421
CE,limoeiro do norte,11,1806.86,150.57,12,CE,limoeiro do norte,-5.170513794233333,-38.10980206133333
CE,madalena,1,176.24,176.24,1,CE,madalena,-4.8395861437142855,-39.56218053571428
CE,maracanau,32,6504.71,191.32,34,CE,maracanau,-3.867715550231214,-38.6119800149711
CE,maranguape,3,345.53,115.18,3,CE,maranguape,-3.8906842471525422,-38.67864935593221
CE,marco,3,756.76,252.25,3,CE,marco,-3.123840075291667,-40.15448948416667
CE,massape,2,182.79,91.4,2,CE,massape,-3.523343395210526,-40.34348043210527
CE,mauriti,1,57.28,57.28,1,CE,mauriti,-7.38737462435,-38.771890942
CE,meruoca,2,160.85,80.42,2,CE,meruoca,-3.544255119,-40.461786845714286
CE,milagres,2,452.89,226.44,2,CE,milagres,-7.312291267785715,-38.94493412071428
CE,milha,2,288.3,144.15,2,CE,milha,-5.676800334,-39.194468005454546
CE,miraima,2,291.3,145.65,2,CE,miraima,-3.566675944,-39.93329423666667
CE,missao velha,1,40.62,40.62,1,CE,missao velha,-7.248646017833334,-39.14616643083333
CE,missi,1,152.95,152.95,1,,,,
CE,mombaca,1,247.98,247.98,1,CE,mombaca,-5.74581433875,-39.6291757855
CE,monsenhor tabosa,3,412.32,137.44,3,CE,monsenhor tabosa,-4.800734121705882,-40.06505088470588
CE,morada nova,9,1571.6,174.62,9,CE,morada nova,-5.094029469464286,-38.37386151017857
CE,morrinhos,4,1124.79,281.2,4,CE,morrinhos,-3.2412970850000002,-40.10812840117647
CE,mucambo,1,149.14,149.14,1,CE,mucambo,-3.9057269963076924,-40.74612755923077
CE,nova olinda,3,1792.93,597.64,3,CE,nova olinda,-7.0979073788181815,-39.67497393727273
CE,nova russas,7,1842.03,263.15,7,CE,nova russas,-4.708860215909091,-40.55677012787879
CE,novo oriente,3,321.4,107.13,3,CE,novo oriente,-5.5368053181,-40.774462189999994
CE,ocara,2,162.69,81.34,2,CE,ocara,-4.487947696,-38.592374936
CE,oros,2,160.71,80.36,2,CE,oros,-6.244349555857143,-38.91500983571429
CE,pacajus,6,1520.0,253.33,6,CE,pacajus,-4.175677256666667,-38.46370798095238
CE,pacatuba,5,4469.86,893.97,5,CE,pacatuba,-3.935594276382353,-38.60980916882353
CE,pacoti,2,222.29,111.15,2,CE,pacoti,-4.22572009875,-38.918038025
CE,pacuja,1,538.4,538.4,1,CE,pacuja,-3.980078786,-40.6959284275
CE,palhano,1,136.6,136.6,1,CE,palhano,-4.745394132857143,-37.96171067142858
CE,paracuru,4,705.92,176.48,4,CE,paracuru,-3.4212424659375,-39.035643089375
CE,paraipaba,4,706.54,141.31,5,CE,paraipaba,-3.4367776315384617,-39.14995291269231
CE,parambu,3,269.22,67.3,4,CE,parambu,-6.210125881111111,-40.69659427
CE,pedra branca,2,88.15,44.08,2,CE,pedra branca,-5.457298977033333,-39.713533653
CE,penaforte,2,559.03,279.52,2,CE,penaforte,-7.829525016857143,-39.07549948714286
CE,pentecoste,2,299.21,149.61,2,CE,pentecoste,-3.7963246928823535,-39.27293613529412
CE,pereiro,3,379.74,126.58,3,CE,pereiro,-6.0459617230000005,-38.460463706666665
CE,pindoretama,1,63.18,63.18,1,CE,pindoretama,-4.033574240666667,-38.30352491166666
CE,pires ferreira,1,43.79,43.79,1,CE,pires ferreira,-4.2477755468,-40.63597751
CE,porteiras,1,42.18,42.18,1,CE,porteiras,-7.533475391333334,-39.11451322777778
CE,potengi,2,331.95,165.98,2,CE,potengi,-7.077147665571429,-40.06074658571429
CE,quixada,12,3176.57,264.71,12,CE,quixada,-4.970129841890625,-39.0152476334375
CE,quixelo,2,200.25,100.12,2,CE,quixelo,-6.2322885042,-39.187282104
CE,quixeramobim,6,1119.97,186.66,6,CE,quixeramobim,-5.198493795428571,-39.293604357678575
CE,quixere,3,1281.01,427.0,3,CE,quixere,-5.071995001055556,-37.984593897222226
CE,redencao,3,1297.66,324.42,4,CE,redencao,-4.2232761047,-38.728202115
CE,reriutaba,3,1331.63,443.88,3,CE,reriutaba,-4.142426305058824,-40.582212979411764
CE,russas,9,4622.34,513.59,9,CE,russas,-4.93932696008,-37.97397144413333
CE,saboeiro,1,201.83,201.83,1,CE,saboeiro,-6.5354362534999995,-39.88118694166667
CE,santa quiteria,5,1139.12,227.82,5,CE,santa quiteria,-4.334710871942857,-40.15402314628572
CE,santana do acarau,4,1563.58,390.9,4,CE,santana do acarau,-3.4608161382777776,-40.20617063611111
CE,santana do cariri,3,946.68,315.56,3,CE,santana do cariri,-7.186362532555555,-39.73590261777778
CE,sao benedito,4,1058.76,264.69,4,CE,sao benedito,-4.045118206945946,-40.8654259227027
CE,sao goncalo do amarante,5,520.94,104.19,5,CE,sao goncalo do amarante,-3.60193884116,-38.9720954188
CE,sao luis do curu,2,258.71,129.35,2,CE,sao luis do curu,-3.6712068293333338,-39.240048073333334
CE,senador pompeu,4,718.11,179.53,4,CE,senador pompeu,-5.587578064928572,-39.37458241071429
CE,sobral,35,13295.73,379.88,35,CE,sobral,-3.6867466369148936,-40.35324028017731
CE,solonopole,2,785.74,392.87,2,CE,solonopole,-5.7377767488,-39.021499702
CE,sucesso,3,485.92,161.97,3,CE,sucesso,-4.942410171,-40.53800343666666
CE,tabuleiro do norte,1,71.88,71.88,1,CE,tabuleiro do norte,-5.250812102533333,-38.12834548266667
CE,taperuaba,1,82.42,82.42,1,CE,taperuaba,-4.0811497115,-39.9470587725
CE,taua,10,1251.37,125.14,10,CE,taua,-6.001450438378378,-40.293332914324324
CE,tiangua,9,2732.68,303.63,9,CE,tiangua,-3.725418372369863,-40.991420973835616
CE,trairi,2,543.53,271.76,2,CE,trairi,-3.2651691606,-39.26812136533333
CE,tururu,1,215.6,215.6,1,CE,tururu,-3.598104898142857,-39.436146685714284
CE,ubajara,3,1414.63,471.54,3,CE,ubajara,-3.8494786456,-40.9178448852
CE,uruburetama,1,87.8,87.8,1,CE,uruburetama,-3.622297057375,-39.50775254625
CE,uruoca,2,295.57,147.79,2,CE,uruoca,-3.3214468102857144,-40.583163205714285
CE,varjota,4,901.18,225.3,4,CE,varjota,-4.173769015333334,-40.39735981291667
CE,varzea alegre,2,198.65,99.32,2,CE,varzea alegre,-6.793319385921054,-39.29963140236842
CE,vicosa do ceara,1,43.79,43.79,1,CE,vicosa do ceara,-3.56234745909375,-41.09512159875
DF,brasilia,2056,352305.14,166.5,2116,DF,brasilia,-15.815272365684347,-47.9848204207689
DF,ceilandia,1,68.84,68.84,1,DF,ceilandia,-15.825336880882352,-48.11647207676471
DF,guara,1,130.99,65.5,2,DF,guara,-15.828059728333335,-47.97877478375
DF,santa maria,1,34.09,34.09,1,DF,santa maria,-16.013791563846155,-48.00914868769231
DF,sobradinho,1,115.94,115.94,1,DF,sobradinho,-15.654765461851852,-47.80905644
DF,taguatinga,3,574.44,143.61,4,DF,taguatinga,-15.770429693220338,-48.01829349779661
ES,afonso claudio,11,1767.92,160.72,11,ES,afonso claudio,-20.075789066142857,-41.12399386514286
ES,agua doce do norte,4,463.52,115.88,4,ES,agua doce do norte,-18.540690606315792,-40.98475877052631
ES,aguia branca,2,199.94,99.97,2,ES,aguia branca,-18.985375367894736,-40.74164300842106
ES,alegre,17,3265.01,192.06,17,ES,alegre,-20.76129971119266,-41.534755315229354
ES,alfredo chaves,6,1052.61,150.37,7,ES,alfredo chaves,-20.62951940357143,-40.748417453095236
ES,alto rio novo,2,327.23,163.62,2,ES,alto rio novo,-19.058137576,-41.0188002875
ES,anchieta,12,2387.85,170.56,14,ES,anchieta,-20.798623626862746,-40.64575177901961
ES,angelo frechiani,1,43.6,43.6,1,,,,
ES,apiaca,6,534.42,89.07,6,ES,apiaca,-21.153838768076923,-41.56719270461539
ES,arace,4,491.18,122.8,4,ES,arace,-20.120864848,-40.787668172
ES,aracruz,38,5102.98,127.57,40,ES,aracruz,-19.848800521422593,-40.22653103200837
ES,araguaia,1,67.23,67.23,1,ES,araguaia,-20.415509086666667,-40.64411836
ES,atilio vivacqua,1,107.78,107.78,1,ES,atilio vivacqua,-20.919328315,-41.19607899388889
ES,baixo guandu,8,1617.17,202.15,8,ES,baixo guandu,-19.51214745074074,-41.01282738648148
ES,barra de sao francisco,9,929.28,92.93,10,ES,barra de sao francisco,-18.754884372871288,-40.88918455861386
ES,boa esperanca,6,1312.95,187.56,7,ES,boa esperanca,-18.534244278461536,-40.30347898717949
ES,bom jesus do norte,4,781.85,195.46,4,ES,bom jesus do norte,-21.126170094285712,-41.67239560457143
ES,braco do rio,2,138.93,69.46,2,ES,braco do rio,-19.404535688333333,-40.12832780833333
ES,brejetuba,1,144.54,144.54,1,ES,brejetuba,-20.147347399473684,-41.291547202105264
ES,cachoeiro de itapemirim,117,19171.42,158.44,121,ES,cachoeiro de itapemirim,-20.846319634978904,-41.12571144120957
ES,cariacica,135,20593.75,149.23,138,ES,cariacica,-20.33017631385468,-40.38354867470443
ES,castelo,17,1990.94,110.61,18,ES,castelo,-20.605142343214286,-41.205064131
ES,celina,2,208.23,104.12,2,ES,celina,-19.942115888,-40.672283932
ES,colatina,63,8552.72,131.58,65,ES,colatina,-19.530748077871902,-40.639160978925624
ES,conceicao da barra,3,398.59,132.86,3,ES,conceicao da barra,-18.57499621255814,-39.73763149651163
ES,conceicao do castelo,5,658.0,131.6,5,ES,conceicao do castelo,-20.359875991724138,-41.24690595241379
ES,divino de sao lourenco,1,149.16,149.16,1,ES,divino de sao lourenco,-20.617529334444445,-41.688596125555556
ES,domingos martins,8,1353.63,150.4,9,ES,domingos martins,-20.36286613826923,-40.69439534846154
ES,dores do rio preto,4,526.33,131.58,4,ES,dores do rio preto,-20.6880752455,-41.846127359
ES,ecoporanga,8,1145.83,143.23,8,ES,ecoporanga,-18.370360981929824,-40.82471624192983
ES,fundao,5,1177.95,235.59,5,ES,fundao,-19.947122350434782,-40.377075535652175
ES,governador lindenberg,2,136.28,68.14,2,ES,governador lindenberg,-19.252478906190476,-40.46111912
ES,guacui,15,4311.75,269.48,16,ES,guacui,-20.772964192891568,-41.675505345903616
ES,guarapari,64,12021.14,179.42,67,ES,guarapari,-20.661143827123286,-40.49663733304109
ES,ibatiba,8,1724.6,191.62,9,ES,ibatiba,-20.23447754,-41.507826849846154
ES,ibiracu,1,57.5,57.5,1,ES,ibiracu,-19.831096194666667,-40.36906949266667
ES,iconha,5,390.13,78.03,5,ES,iconha,-20.788572912978722,-40.81401545957447
ES,irupi,2,287.63,143.82,2,ES,irupi,-20.3455807975,-41.641032935
ES,itaguacu,7,1972.99,281.86,7,ES,itaguacu,-19.790841914999998,-40.85343437857143
ES,itaipava,4,520.02,130.0,4,ES,itaipava,-20.897994109615386,-40.78048931884616
ES,itaoca,2,497.2,248.6,2,ES,itaoca,-20.725215665,-41.134594910000004
ES,itapemirim,4,459.34,114.84,4,ES,itapemirim,-20.947383609156628,-40.805850393614456
ES,itarana,3,1010.02,336.67,3,ES,itarana,-19.8764390384375,-40.8745791571875
ES,iuna,2,176.27,88.14,2,ES,iuna,-20.34949592567164,-41.534048216567165
ES,jacigua,2,175.11,87.56,2,ES,jacigua,-20.706822352499998,-41.0171278625
ES,jaguare,14,1618.38,115.6,14,ES,jaguare,-18.909089753207546,-40.07400183415095
ES,jeronimo monteiro,2,321.11,160.56,2,ES,jeronimo monteiro,-20.791454877333333,-41.39250584533333
ES,joao neiva,8,911.4,113.93,8,ES,joao neiva,-19.751979852153845,-40.3864064456923
ES,laranja da terra,1,85.6,85.6,1,ES,laranja da terra,-19.890532419444444,-41.06347464611111
ES,linhares,61,14326.81,220.41,65,ES,linhares,-19.383181275714286,-40.0594078842353
ES,mantenopolis,4,503.02,125.76,4,ES,mantenopolis,-18.863227199,-41.119559050333336
ES,marataizes,16,3274.31,204.64,16,ES,marataizes,-21.029751053924052,-40.82037324018987
ES,marechal floriano,5,681.38,136.28,5,ES,marechal floriano,-20.415813615744682,-40.688928125531916
ES,marilandia,8,1593.22,199.15,8,ES,marilandia,-19.41204527102564,-40.5431727351282
ES,mimoso do sul,10,928.89,92.89,10,ES,mimoso do sul,-21.061437567042255,-41.36299402577465
ES,montanha,7,1862.77,186.28,10,ES,montanha,-18.130835713728814,-40.35755428440678
ES,mucurici,1,415.66,415.66,1,ES,mucurici,-18.083241380714288,-40.522014888571434
ES,muniz freire,2,279.13,139.56,2,ES,muniz freire,-20.454064084375,-41.4135528340625
ES,muqui,4,574.38,143.6,4,ES,muqui,-20.95143273568182,-41.34210569431818
ES,nova venecia,17,2952.63,155.4,19,ES,nova venecia,-18.704343001726617,-40.403131340431656
ES,novo brasil,1,103.75,103.75,1,ES,novo brasil,-19.253832623333334,-40.50569362833333
ES,pacotuba,1,69.14,69.14,1,ES,pacotuba,-20.762729094999997,-41.271606235
ES,pancas,1,198.9,198.9,1,ES,pancas,-19.196728178333334,-40.84185594933333
ES,paraju,1,105.74,105.74,1,ES,paraju,-20.31783628,-40.80437947
ES,pedro canario,5,476.55,95.31,5,ES,pedro canario,-18.29241704109091,-39.95834528563636
ES,piacu,1,194.48,194.48,1,,,,
ES,pinheiros,8,1182.51,147.81,8,ES,pinheiros,-18.4106033613253,-40.219874232409644
ES,piuma,17,2590.17,152.36,17,ES,piuma,-20.840995616235297,-40.73417931529412
ES,ponto belo,1,98.56,98.56,1,ES,ponto belo,-18.130840572222223,-40.538063951666665
ES,praia grande,1,75.08,75.08,1,ES,praia grande,-20.03911447625,-40.18624212
ES,presidente kennedy,2,282.31,141.16,2,ES,presidente kennedy,-21.118842887619046,-41.040977006666665
ES,quilometro 14 do mutum,1,66.01,66.01,1,ES,quilometro 14 do mutum,-19.3985897,-40.90529094
ES,rio bananal,4,332.32,83.08,4,ES,rio bananal,-19.263935032,-40.32409012066667
ES,rio novo do sul,6,651.89,108.65,6,ES,rio novo do sul,-20.86254793404762,-40.93472847785714
ES,santa leopoldina,1,107.78,107.78,1,ES,santa leopoldina,-20.100586050714288,-40.529228075714286
ES,santa maria de jetiba,14,2231.07,148.74,15,ES,santa maria de jetiba,-20.02925091369863,-40.7487762169863
ES,santa teresa,9,1313.65,131.36,10,ES,santa teresa,-19.947344524929576,-40.61002522971831
ES,santo antonio do canaa,1,194.88,194.88,1,ES,santo antonio do canaa,-5.9970441333333335,-60.92556006666667
ES,sao domingos do norte,7,1028.5,146.93,7,ES,sao domingos do norte,-19.139394989333333,-40.61517826866667
ES,sao gabriel da palha,13,1732.64,133.28,13,ES,sao gabriel da palha,-19.017073118981482,-40.536873684907405
ES,sao joao de petropolis,1,43.09,43.09,1,ES,sao joao de petropolis,-19.82452013,-40.65945132
ES,sao joao do sobrado,1,73.56,73.56,1,ES,sao joao do sobrado,-18.320977836666668,-40.40572143333333
ES,sao jose do calcado,6,1127.26,187.88,6,ES,sao jose do calcado,-21.019552957575755,-41.652481347272726
ES,sao mateus,43,7679.63,163.4,47,ES,sao mateus,-18.722987190921984,-39.84323144322695
ES,sao roque do canaa,5,436.01,87.2,5,ES,sao roque do canaa,-19.741067244666667,-40.65827577933333
ES,serra,278,42965.77,150.76,285,ES,serra,-20.173936651271394,-40.24778150131214
ES,sooretama,5,456.35,91.27,5,ES,sooretama,-19.188864468125,-40.10029934270833
ES,vargem alta,5,372.35,74.47,5,ES,vargem alta,-20.6610422490625,-41.0097379253125
ES,vargem grande do soturno,1,111.02,111.02,1,ES,vargem grande do soturno,-21.0292498325,-42.518900175
ES,venda nova do imigrante,15,3171.22,211.41,15,ES,venda nova do imigrante,-20.331885278559323,-41.13348831457627
ES,viana,21,3937.27,187.49,21,ES,viana,-20.36140190612245,-40.434600960714285
ES,vila nelita,2,167.98,83.99,2,ES,vila nelita,-18.476713765,-41.018778465
ES,vila valerio,7,1632.29,204.04,8,ES,vila valerio,-18.995706147499998,-40.383207652857145
ES,vila velha,324,56182.64,168.72,333,ES,vila velha,-20.360461627643218,-40.31443732232052
ES,vitoria,364,62678.33,166.26,377,ES,vitoria,-20.289186820087437,-40.30201251086517
GO,abadiania,1,1025.52,1025.52,1,GO,abadiania,-16.19378972125,-48.708274984375
GO,acreuna,7,1306.45,186.64,7,GO,acreuna,-17.398110108918917,-50.372657564864866
GO,agua fria de goias,1,167.81,167.81,1,GO,agua fria de goias,-14.972415222857142,-47.78532008999999
GO,agua limpa,1,416.8,416.8,1,GO,agua limpa,-18.076322395,-48.761604325
GO,aguas lindas de goias,23,2788.8,116.2,24,GO,aguas lindas de goias,-15.72192837048387,-48.27788034806452
GO,alexania,5,568.25,113.65,5,GO,alexania,-16.08201793,-48.50773302142857
GO,alto horizonte,2,285.15,142.57,2,GO,alto horizonte,-14.194183828333333,-49.34076330666667
GO,alto paraiso de goias,9,1963.31,218.15,9,GO,alto paraiso de goias,-14.137743920740741,-47.51727023944444
GO,alvorada do norte,2,221.72,73.91,3,GO,alvorada do norte,-14.485090982380953,-46.50753406238095
GO,americano do brasil,3,346.29,115.43,3,GO,americano do brasil,-16.253615455714286,-49.98154062928571
GO,anapolis,109,20097.51,179.44,112,GO,anapolis,-16.32728010963989,-48.95001949660664
GO,anicuns,8,809.19,101.15,8,GO,anicuns,-16.459608625333335,-49.96077526844445
GO,aparecida de goiania,104,16992.24,154.47,110,GO,aparecida de goiania,-16.78024852491909,-49.276965849271846
GO,apore,1,197.38,197.38,1,GO,apore,-18.9632230775,-51.926939045
GO,aragarcas,3,247.6,82.53,3,GO,aragarcas,-15.905772857142857,-52.23912359714286
GO,aragoiania,1,112.9,112.9,1,GO,aragoiania,-16.91120237375,-49.451222952500004
GO,araguapaz,2,160.89,80.44,2,GO,araguapaz,-15.099922216842105,-50.614204963157896
GO,arenopolis,1,128.9,128.9,1,GO,arenopolis,-16.385574623333333,-51.55983639000001
GO,aruana,1,180.31,90.16,2,GO,aruana,-14.928987425714284,-51.079234254285716
GO,aurilandia,1,176.2,176.2,1,GO,aurilandia,-16.68031463,-50.46548872142857
GO,barro alto,1,123.33,123.33,1,GO,barro alto,-14.9671406112,-48.919578934
GO,bela vista de goias,7,753.35,107.62,7,GO,bela vista de goias,-16.97111030972222,-48.95012321527778
GO,bom jardim de goias,1,25.1,25.1,1,GO,bom jardim de goias,-16.20198826714286,-52.17467430071429
GO,bom jesus,7,1112.53,139.07,8,GO,bom jesus,-18.216467910377357,-49.73594875943396
GO,bonfinopolis,2,512.6,256.3,2,GO,bonfinopolis,-16.610885271666664,-48.96495494166667
GO,brazabrantes,2,82.7,41.35,2,GO,brazabrantes,-16.432173555454543,-49.38686593545455
GO,britania,1,105.37,105.37,1,GO,britania,-15.243135095,-51.1652489435
GO,buriti alegre,1,48.22,48.22,1,GO,buriti alegre,-18.13639637142857,-49.04102855238096
GO,cabeceiras,1,33.13,33.13,1,GO,cabeceiras,-15.805134869375,-46.93090976875
GO,cachoeira alta,6,605.48,100.91,6,GO,cachoeira alta,-18.753473092820514,-50.94690617307692
GO,cachoeira dourada,2,185.02,92.51,2,GO,cachoeira dourada,-18.4930342425,-49.482245248125
GO,cacu,8,1163.53,145.44,8,GO,cacu,-18.568078423928572,-51.134093369642855
GO,caiaponia,4,428.97,107.24,4,GO,caiaponia,-16.956580271851852,-51.81318857333333
GO,caldas novas,36,6204.57,172.35,36,GO,caldas novas,-17.740122739888474,-48.61930588107807
GO,campinacu,1,195.91,195.91,1,GO,campinacu,-13.80490425,-48.56748108
GO,campinorte,7,1400.61,200.09,7,GO,campinorte,-14.312999984000001,-49.153655794222225
GO,campo alegre de goias,2,240.27,120.14,2,GO,campo alegre de goias,-17.635395579444445,-47.776198453333336
GO,campos belos,7,927.53,132.5,7,GO,campos belos,-13.037238709466665,-46.769742407866666
GO,campos verdes,1,413.04,413.04,1,GO,campos verdes,-14.2648708975,-49.6567238725
GO,carmo do rio verde,2,206.32,103.16,2,GO,carmo do rio verde,-15.356895077307692,-49.702355190384615
GO,castelandia,4,688.41,137.68,5,GO,castelandia,-18.089175547,-50.219651864999996
GO,catalao,31,6440.9,189.44,34,GO,catalao,-18.166525931174245,-47.94380135541667
GO,cavalcante,2,228.07,114.04,2,GO,cavalcante,-13.79453039347826,-47.45830204652174
GO,ceres,7,2116.38,302.34,7,GO,ceres,-15.307023815555555,-49.605972402888895
GO,cezarina,1,31.72,31.72,1,GO,cezarina,-16.98043991307692,-49.77059946692308
GO,chapadao do ceu,7,1343.25,167.91,8,GO,chapadao do ceu,-18.397256482666666,-52.662961858888885
GO,cidade ocidental,8,876.57,109.57,8,GO,cidade ocidental,-16.0946488485,-47.9254598705
GO,cocalzinho de goias,1,203.08,203.08,1,GO,cocalzinho de goias,-15.770877033333333,-48.757183258000005
GO,corumba de goias,2,163.28,81.64,2,GO,corumba de goias,-15.925052381333334,-48.81002060866667
GO,corumbaiba,4,256.47,64.12,4,GO,corumbaiba,-18.140232049090912,-48.563894136969694
GO,cristalina,8,2275.49,284.44,8,GO,cristalina,-16.76963120047619,-47.610470151836736
GO,crixas,7,1129.44,141.18,8,GO,crixas,-14.540479295744682,-49.97009448851064
GO,crominia,1,61.0,61.0,1,GO,crominia,-17.289371575,-49.37455718875
GO,cumari,2,229.51,114.76,2,GO,cumari,-18.264754425714283,-48.149793547142856
GO,damianopolis,2,63.84,31.92,2,GO,damianopolis,-14.559459822857145,-46.17463099214286
GO,diorama,1,266.92,133.46,2,GO,diorama,-16.23446846,-51.25794371833334
GO,divinopolis de goias,1,94.3,94.3,1,GO,divinopolis de goias,-13.28386118375,-46.42519908375
GO,domiciano ribeiro,2,149.38,74.69,2,,,,
GO,doverlandia,2,311.87,155.94,2,GO,doverlandia,-16.721613806,-52.315562324800005
GO,edeia,4,560.91,140.23,4,GO,edeia,-17.33976420962963,-49.92884721185185
GO,fazenda nova,4,407.77,101.94,4,GO,fazenda nova,-16.182791121,-50.7854472115
GO,firminopolis,5,832.5,118.93,7,GO,firminopolis,-16.578871827894737,-50.305098610526315
GO,flores de goias,1,43.22,43.22,1,GO,flores de goias,-14.46962149090909,-47.01813478818181
GO,formosa,34,6124.12,180.12,34,GO,formosa,-15.543909507150838,-47.33225925773743
GO,formoso,1,61.93,61.93,1,GO,formoso,-13.659083186,-48.87846435733333
GO,goianapolis,4,1224.04,306.01,4,GO,goianapolis,-16.506733003157894,-49.02029978631579
GO,goiandira,1,113.13,113.13,1,GO,goiandira,-18.13427214,-48.08681107230769
GO,goianesia,18,2588.72,143.82,18,GO,goianesia,-15.332941692323232,-49.12227526484849
GO,goiania,667,124060.53,180.58,687,GO,goiania,-16.681784318700302,-49.27788808238278
GO,goianira,8,1057.77,132.22,8,GO,goianira,-16.51367114361702,-49.41860232382979
GO,goias,8,1236.73,154.59,8,GO,goias,-15.938686967118644,-50.14239593322034
GO,goiatuba,10,2648.12,264.81,10,GO,goiatuba,-18.012371332419352,-49.3682007958871
GO,guapo,6,868.7,144.78,6,GO,guapo,-16.837178944166666,-49.53649834833334
GO,hidrolandia,1,74.5,74.5,1,GO,hidrolandia,-16.961693361363636,-49.229573632272725
GO,hidrolina,2,218.96,109.48,2,GO,hidrolina,-14.722349710588235,-49.468921156470586
GO,iaciara,4,1098.31,274.58,4,GO,iaciara,-14.101110453611112,-46.63425611416667
GO,inaciolandia,3,952.92,317.64,3,GO,inaciolandia,-18.487201927857143,-49.99290500785714
GO,indiara,3,449.47,112.37,4,GO,indiara,-17.1448892355,-49.9923171835
GO,inhumas,15,2733.51,170.84,16,GO,inhumas,-16.361440556530614,-49.49676761632654
GO,ipameri,13,2641.99,203.23,13,GO,ipameri,-17.709584208734174,-48.150842311518986
GO,ipiranga de goias,1,139.98,139.98,1,GO,ipiranga de goias,-15.172224871428572,-49.67133101857143
GO,ipora,14,2362.54,157.5,15,GO,ipora,-16.439421968360655,-51.117026252049186
GO,itaberai,6,1151.08,191.85,6,GO,itaberai,-16.022621081964285,-49.80105198446428
GO,itaguacu,2,114.1,57.05,2,GO,itaguacu,-17.2000713,-49.51976545
GO,itaguari,1,913.7,913.7,1,GO,itaguari,-15.920650921111111,-49.60473019111111
GO,itaguaru,2,117.66,58.83,2,GO,itaguaru,-15.762268524444444,-49.63334493666667
GO,itaja,3,1001.9,333.97,3,GO,itaja,-19.065550024,-51.548178273999994
GO,itapaci,4,398.11,99.53,4,GO,itapaci,-14.957861923272727,-49.54893101454545
GO,itapirapua,2,495.34,247.67,2,GO,itapirapua,-15.817281270625,-50.6215951875
GO,itapuranga,7,1003.26,143.32,7,GO,itapuranga,-15.560778295106383,-49.94756067702128
GO,itumbiara,36,6570.69,182.52,36,GO,itumbiara,-18.412658607319585,-49.22257891931271
GO,jandaia,1,53.4,53.4,1,GO,jandaia,-17.0636066775,-50.153280089166664
GO,jaragua,7,755.07,107.87,7,GO,jaragua,-15.751488466760561,-49.330129149014084
GO,jardim abc de goias,1,34.09,34.09,1,GO,jardim abc de goias,-21.46782909,-56.1718692
GO,jatai,54,11337.94,209.96,54,GO,jatai,-17.883822696109217,-51.723101405938564
GO,jaupaci,1,105.28,105.28,1,GO,jaupaci,-16.183539203333332,-50.95324986
GO,jesupolis,2,195.34,97.67,2,GO,jesupolis,-15.95669306,-49.375204415
GO,joviania,4,472.11,94.42,5,GO,joviania,-17.805859660714283,-49.62286658892857
GO,jussara,3,130.91,43.64,3,GO,jussara,-15.863814408305084,-50.87438417084746
GO,leopoldo de bulhoes,1,300.76,300.76,1,GO,leopoldo de bulhoes,-16.62318408166667,-48.74315701333333
GO,luziania,30,5608.51,169.95,33,GO,luziania,-16.227128835060974,-47.942593118658536
GO,mairipotaba,1,149.65,149.65,1,GO,mairipotaba,-17.29730142625,-49.49230339625
GO,mambai,2,921.9,460.95,2,GO,mambai,-14.494591813333333,-46.11182018307692
GO,mara rosa,2,218.17,109.08,2,GO,mara rosa,-14.018463916,-49.1782333612
GO,matrincha,2,207.18,103.59,2,GO,matrincha,-15.448952625,-50.719223974375
GO,maurilandia,4,334.51,83.63,4,GO,maurilandia,-17.975693509499997,-50.3391201005
GO,mimoso de goias,1,179.12,179.12,1,GO,mimoso de goias,-15.05783037,-48.1612961175
GO,minacu,10,1787.83,162.53,11,GO,minacu,-13.528568858987343,-48.21980445936709
GO,mineiros,24,4219.64,168.79,25,GO,mineiros,-17.55731977093137,-52.54965552519608
GO,montividiu do norte,1,33.09,33.09,1,GO,montividiu do norte,-13.352843373999999,-48.690562356
GO,morrinhos,12,1804.72,128.91,14,GO,morrinhos,-17.733108195971223,-49.11374034697842
GO,morro agudo de goias,1,50.68,50.68,1,GO,morro agudo de goias,-15.315202364444445,-50.05773409111111
GO,mossamedes,1,84.14,84.14,1,GO,mossamedes,-16.125031838,-50.214551182
GO,mozarlandia,6,1008.04,144.01,7,GO,mozarlandia,-14.751743117941176,-50.56845031382353
GO,mundo novo,2,340.15,170.08,2,GO,mundo novo,-13.77311729076923,-50.278493658461535
GO,mutunopolis,1,58.56,58.56,1,GO,mutunopolis,-13.728390585,-49.276237853333335
GO,nazario,2,274.39,137.2,2,GO,nazario,-16.581432027142856,-49.88364087714286
GO,neropolis,7,1464.02,209.15,7,GO,neropolis,-16.407123097142858,-49.221066474000004
GO,niquelandia,13,2080.43,148.6,14,GO,niquelandia,-14.473973777659575,-48.457875869574465
GO,nova america,1,66.11,66.11,1,GO,nova america,-15.021553256666666,-49.89452748666667
GO,nova aurora,1,512.62,512.62,1,GO,nova aurora,-18.058841005,-48.25624234666666
GO,nova crixas,1,176.18,176.18,1,GO,nova crixas,-14.094683529047618,-50.34268955380952
GO,nova roma,1,67.59,67.59,1,GO,nova roma,-13.741768117777777,-46.88193670444444
GO,nova veneza,4,419.0,104.75,4,GO,nova veneza,-16.3728020725,-49.316666555
GO,novo gama,15,2410.24,150.64,16,GO,novo gama,-16.061095233404256,-48.040104449787236
GO,novo planalto,1,46.29,46.29,1,GO,novo planalto,-13.240386888571427,-49.50856735285714
GO,orizona,6,657.08,109.51,6,GO,orizona,-17.032068551923075,-48.29992396961538
GO,ouro verde de goias,1,98.23,98.23,1,GO,ouro verde de goias,-16.218489548,-49.196335588
GO,ouvidor,1,401.07,401.07,1,GO,ouvidor,-18.232603922,-47.834090595999996
GO,padre bernardo,4,263.69,65.92,4,GO,padre bernardo,-15.169692456444444,-48.283660198666674
GO,palmeiras de goias,3,407.33,135.78,3,GO,palmeiras de goias,-16.80716322651163,-49.922286529069765
GO,palminopolis,1,237.94,237.94,1,GO,palminopolis,-16.793202848333333,-50.162827503333325
GO,paranaiguara,3,293.35,97.78,3,GO,paranaiguara,-18.9050827037037,-50.65025636
GO,parauna,4,610.16,152.54,4,GO,parauna,-16.96411698148148,-50.460829968148154
GO,piracanjuba,10,2211.4,221.14,10,GO,piracanjuba,-17.30326131676923,-49.025914166
GO,piranhas,3,911.81,227.95,4,GO,piranhas,-16.431841746296296,-51.81816134444444
GO,pirenopolis,4,355.74,88.94,4,GO,pirenopolis,-15.861498141836735,-48.970553448979594
GO,pires do rio,11,3930.03,327.5,12,GO,pires do rio,-17.30447789289855,-48.28243088478261
GO,planaltina,10,949.34,94.93,10,GO,planaltina,-15.452488181363636,-47.60462662454545
GO,planaltina de goias,1,131.61,65.81,2,GO,planaltina de goias,-15.450886825,-47.592279035000004
GO,pontalina,1,488.72,244.36,2,GO,pontalina,-17.518672391666666,-49.45098464604167
GO,porangatu,13,2162.74,166.36,13,GO,porangatu,-13.438798262782608,-49.14638724678261
GO,portelandia,2,130.63,65.32,2,GO,portelandia,-17.354883856666667,-52.67907869
GO,posse,16,3986.72,249.17,16,GO,posse,-14.087491199104477,-46.361522262985076
GO,quirinopolis,14,1789.8,127.84,14,GO,quirinopolis,-18.445986312594936,-50.451095535886076
GO,rianapolis,4,534.47,133.62,4,GO,rianapolis,-15.383066117142858,-49.54597423285714
GO,rio verde,64,11834.95,184.92,64,GO,rio verde,-17.79865364402439,-50.91930546031359
GO,rubiataba,7,1210.69,172.96,7,GO,rubiataba,-15.163677484125,-49.8033496485
GO,sanclerlandia,3,510.34,127.58,4,GO,sanclerlandia,-16.201217939545455,-50.310591820000006
GO,santa cruz de goias,2,779.69,389.84,2,GO,santa cruz de goias,-17.306082670000002,-48.501689125
GO,santa fe de goias,3,1921.27,480.32,4,GO,santa fe de goias,-15.7692719875,-51.102471464375
GO,santa helena de goias,9,1733.68,192.63,9,GO,santa helena de goias,-17.813603065754716,-50.59664445150944
GO,santa rita do araguaia,7,972.03,138.86,7,GO,santa rita do araguaia,-17.323659889250003,-53.198554913500004
GO,santo antonio de goias,1,149.02,149.02,1,GO,santo antonio de goias,-16.492568323333334,-49.31185731555556
GO,santo antonio do descoberto,5,992.88,198.58,5,GO,santo antonio do descoberto,-15.969416670833333,-48.292659289999996
GO,sao joao d'alianca,3,844.86,281.62,3,GO,sao joao d'alianca,-14.70437166181818,-47.52193446636364
GO,sao joao da parauna,1,187.84,187.84,1,GO,sao joao da parauna,-16.818234399999998,-50.408116723333336
GO,sao luis de montes belos,8,1524.13,190.52,8,GO,sao luis de montes belos,-16.51671113735632,-50.37478204885058
GO,sao luiz do norte,1,148.33,148.33,1,GO,sao luiz do norte,-14.864016992222222,-49.32822780111111
GO,sao miguel do araguaia,5,1518.03,303.61,5,GO,sao miguel do araguaia,-13.2647790764,-50.1632579684
GO,sao patricio,1,172.96,172.96,1,GO,sao patricio,-15.350781706666666,-49.81908993
GO,sao simao,4,440.52,110.13,4,GO,sao simao,-18.99902430596491,-50.548983540175435
GO,senador canedo,16,1790.29,111.89,16,GO,senador canedo,-16.69075970053333,-49.1150873872
GO,serranopolis,3,1210.27,403.42,3,GO,serranopolis,-18.307573902105265,-51.95839138368421
GO,silvania,7,1373.15,196.16,7,GO,silvania,-16.66337148871795,-48.610279285897434
GO,simolandia,2,169.73,84.86,2,GO,simolandia,-14.469331536086955,-46.48248162782609
GO,teresina de goias,1,96.8,96.8,1,GO,teresina de goias,-13.760069416666667,-47.26185315833333
GO,trindade,24,4007.41,166.98,24,GO,trindade,-16.646490803397434,-49.458198408589745
GO,trombas,1,32.07,32.07,1,GO,trombas,-13.510165672,-48.743772035
GO,turvania,2,117.35,58.68,2,GO,turvania,-16.60893736857143,-50.13409465
GO,turvelandia,1,42.4,42.4,1,GO,turvelandia,-17.852077036999997,-50.305812929
GO,uruacu,16,2307.27,135.72,17,GO,uruacu,-14.521762863232324,-49.143007266868686
GO,uruana,3,1355.95,451.98,3,GO,uruana,-15.505783711666668,-49.68360233055555
GO,urutai,3,184.79,61.6,3,GO,urutai,-17.46446375090909,-48.20288848636364
GO,valparaiso de goias,36,6424.51,173.64,37,GO,valparaiso de goias,-16.071236788076924,-47.98800352260683
GO,vianopolis,3,616.76,205.59,3,GO,vianopolis,-16.745552131363635,-48.514168230909085
GO,vicentinopolis,2,420.55,210.27,2,GO,vicentinopolis,-17.732731553809522,-49.80451223
MA,acailandia,7,1233.48,176.21,7,MA,acailandia,-4.946489769023255,-47.48649891023256
MA,alcantara,1,464.86,464.86,1,MA,alcantara,-2.396421514,-44.445311206666666
MA,alto alegre do maranhao,1,123.32,123.32,1,MA,alto alegre do maranhao,-4.2141349116,-44.449512784
MA,alto alegre do pindare,1,259.56,259.56,1,MA,alto alegre do pindare,-3.707678757133333,-45.85938764666666
MA,alto parnaiba,5,948.1,189.62,5,MA,alto parnaiba,-9.1470363772,-45.964730245
MA,amapa do maranhao,1,50.05,50.05,1,MA,amapa do maranhao,-1.673257665,-46.01030263
MA,araguana,1,224.07,224.07,1,MA,araguana,-2.9505096665,-45.665426194999995
MA,arame,1,64.14,64.14,1,MA,arame,-4.89005847592,-46.0068468184
MA,arari,2,828.79,414.4,2,MA,arari,-3.450861550057143,-44.778602889714286
MA,bacabal,11,3883.5,353.05,11,MA,bacabal,-4.228326048401515,-44.786242197499995
MA,bacuri,2,444.21,148.07,3,MA,bacuri,-1.7282896858,-45.139859810999994
MA,balsas,16,6607.74,388.69,17,MA,balsas,-7.528342748800001,-46.04224689993333
MA,barra do corda,7,1354.33,193.48,7,MA,barra do corda,-5.504449918788889,-45.24697453833333
MA,barreirinhas,4,490.73,122.68,4,MA,barreirinhas,-2.7579807325932206,-42.83235889745763
MA,bela vista do maranhao,1,83.15,83.15,1,MA,bela vista do maranhao,-3.7455107832000003,-45.261844524000004
MA,benedito leite,1,134.12,134.12,1,MA,benedito leite,-7.218531516666666,-44.55507182
MA,bequimao,1,386.15,386.15,1,MA,bequimao,-2.450119713888889,-44.787561436666664
MA,boa vista do gurupi,2,154.75,77.38,2,MA,boa vista do gurupi,-1.7953781763999999,-46.299441508
MA,bom jardim,1,60.05,60.05,1,MA,bom jardim,-3.5434591952142855,-45.608915981428574
MA,bom jesus das selvas,2,301.42,150.71,2,MA,bom jesus das selvas,-4.488114154882353,-46.85438208647059
MA,brejo,1,138.24,138.24,1,MA,brejo,-3.6795072667391304,-42.75333051217392
MA,buriti,1,229.91,229.91,1,MA,buriti,-3.9446571482307693,-42.91388972615384
MA,buriticupu,4,919.03,183.81,5,MA,buriticupu,-4.316653440395833,-46.458779264791666
MA,cajapio,1,149.16,149.16,1,MA,cajapio,-2.8766380540000003,-44.67363441333333
MA,cajari,1,316.3,316.3,1,MA,cajari,-3.3215870433999997,-45.014180412
MA,campestre do maranhao,2,340.95,170.48,2,MA,campestre do maranhao,-6.182209033666667,-47.34691889333333
MA,candido mendes,1,316.58,316.58,1,MA,candido mendes,-1.4861816886666666,-45.72538825111111
MA,cantanhede,1,735.85,735.85,1,MA,cantanhede,-3.635001963,-44.378195170000005
MA,capinzal do norte,2,460.6,230.3,2,MA,capinzal do norte,-4.7110552740000005,-44.327361614285714
MA,carolina,2,500.69,250.34,2,MA,carolina,-7.330871339192308,-47.468393805384615
MA,carutapera,2,251.23,125.62,2,MA,carutapera,-1.204759508,-46.021001220555554
MA,caxias,16,2604.15,162.76,16,MA,caxias,-4.866195072304054,-43.35468989837838
MA,cedral,3,1416.52,472.17,3,MA,cedral,-1.9992658365,-44.53586993
MA,centro novo do maranhao,1,352.81,352.81,1,MA,centro novo do maranhao,-2.177829804,-46.16891588
MA,chapadinha,3,287.06,95.69,3,MA,chapadinha,-3.7402297302352943,-43.359261179647056
MA,cidelandia,1,528.8,528.8,1,MA,cidelandia,-5.1734292208333335,-47.78618988
MA,codo,8,3163.98,395.5,8,MA,codo,-4.460538909688524,-43.89020112278689
MA,coelho neto,2,418.6,139.53,3,MA,coelho neto,-4.254330518909091,-43.01466358969697
MA,colinas,3,1263.4,421.13,3,MA,colinas,-6.030915894413793,-44.24744157344828
MA,coroata,8,1328.47,147.61,9,MA,coroata,-4.1301330831600005,-44.12610755360001
MA,cururupu,3,754.67,251.56,3,MA,cururupu,-1.8277169850434785,-44.87055060869566
MA,dom pedro,3,438.68,146.23,3,MA,dom pedro,-5.036805707518518,-44.43793200333334
MA,esperantinopolis,3,771.41,257.14,3,MA,esperantinopolis,-4.879426272111111,-44.886971162222224
MA,estreito,3,427.65,142.55,3,MA,estreito,-6.55965585876087,-47.44371929347826
MA,formosa da serra negra,1,155.5,155.5,1,MA,formosa da serra negra,-6.4408290305,-46.188708055
MA,fortuna,3,661.92,220.64,3,MA,fortuna,-5.732696440111111,-44.15482993333333
MA,goncalves dias,1,99.25,99.25,1,MA,goncalves dias,-5.154876539428571,-44.29936438
MA,governador eugenio barros,1,417.45,417.45,1,MA,governador eugenio barros,-5.322429943333334,-44.24422231666667
MA,grajau,4,965.51,193.1,5,MA,grajau,-5.828595875857142,-46.14636129
MA,guimaraes,1,252.11,252.11,1,MA,guimaraes,-2.1310284337142855,-44.61234880285714
MA,humberto de campos,1,81.57,81.57,1,MA,humberto de campos,-2.6262256796666663,-43.483555876666664
MA,icatu,1,892.9,892.9,1,MA,icatu,-2.7750898531818184,-44.05960391272727
MA,imperatriz,39,9144.78,228.62,40,MA,imperatriz,-5.519441920950118,-47.4772842424228
MA,itapecuru mirim,4,702.95,175.74,4,MA,itapecuru mirim,-3.3911931223428575,-44.36441203342857
MA,jatoba,1,186.36,186.36,1,MA,jatoba,-5.8178699932499995,-44.2256717825
MA,joao lisboa,4,810.71,162.14,5,MA,joao lisboa,-5.447009891133334,-47.404762244000004
MA,joselandia,1,109.18,109.18,1,MA,joselandia,-4.9842241995,-44.69732076
MA,lago da pedra,5,1038.96,207.79,5,MA,lago da pedra,-4.565113413657895,-45.12945492736842
MA,lago verde,1,134.01,134.01,1,MA,lago verde,-4.042075045571429,-44.93628718714286
MA,loreto,1,1643.64,1643.64,1,MA,loreto,-7.086017785857143,-45.13743266
MA,magalhaes de almeida,1,323.52,323.52,1,MA,magalhaes de almeida,-3.3949306976000004,-42.204921758
MA,maioba,3,778.07,259.36,3,,,,
MA,maracacume,4,802.42,200.6,4,MA,maracacume,-2.0463521190666665,-45.95805089733334
MA,maranhaozinho,1,76.57,76.57,1,MA,maranhaozinho,-2.244333922125,-45.85898188375
MA,mata roma,2,260.91,130.45,2,MA,mata roma,-3.624797411,-43.11580633
MA,matoes,1,106.3,106.3,1,MA,matoes,-5.5207678832,-43.203806951333334
MA,matoes do norte,2,772.28,386.14,2,MA,matoes do norte,-3.6272852205,-44.555883055
MA,miranda do norte,1,154.64,154.64,1,MA,miranda do norte,-3.5633714848461535,-44.581694908461536
MA,mirinzal,3,311.65,103.88,3,MA,mirinzal,-2.0674412916000002,-44.784597405
MA,moncao,1,143.36,143.36,1,MA,moncao,-3.4976371036428575,-45.24741906285715
MA,nova olinda do maranhao,4,1724.33,431.08,4,MA,nova olinda do maranhao,-2.8063623615555553,-45.70387100777778
MA,olho d'agua das cunhas,2,370.97,185.48,2,MA,olho d'agua das cunhas,-4.1427336042,-45.116054437
MA,paco do lumiar,7,1005.93,143.7,7,MA,paco do lumiar,-2.534044092266667,-44.162224161333334
MA,paraibano,3,422.91,140.97,3,MA,paraibano,-6.43167348225,-43.987622561500004
MA,parnarama,1,217.82,217.82,1,MA,parnarama,-5.682049024444445,-43.09420238444444
MA,passagem franca,1,87.66,87.66,1,MA,passagem franca,-6.180233573833333,-43.7793681825
MA,pastos bons,2,210.22,105.11,2,MA,pastos bons,-6.600837855,-44.08447440333333
MA,paulino neves,1,614.63,614.63,1,MA,paulino neves,-2.7469312350000004,-42.54776783
MA,pedreiras,3,1141.76,380.59,3,MA,pedreiras,-4.572816882046154,-44.598918193692306
MA,peri mirim,1,59.83,59.83,1,MA,peri mirim,-2.577802673,-44.857218042
MA,pindare mirim,3,586.2,195.4,3,MA,pindare mirim,-3.6161667688947365,-45.34696692157895
MA,pinheiro,4,553.23,138.31,4,MA,pinheiro,-2.5237033286197184,-45.08581009577465
MA,pio xii,1,546.03,546.03,1,MA,pio xii,-3.8894224918666667,-45.17044471533334
MA,pocao de pedras,1,214.05,214.05,1,MA,pocao de pedras,-4.753368060000001,-44.94231606153846
MA,porto franco,2,349.14,174.57,2,MA,porto franco,-6.34513615111111,-47.393249690370375
MA,presidente dutra,12,2729.75,227.48,12,MA,presidente dutra,-5.291370897839286,-44.491790793214285
MA,presidente juscelino,1,302.46,302.46,1,MA,presidente juscelino,-2.923192487,-44.06273522
MA,presidente medici,1,143.99,143.99,1,MA,presidente medici,-2.3805553657777776,-45.82430121333333
MA,rosario,1,79.04,79.04,1,MA,rosario,-2.9398631660000003,-44.24982375
MA,sambaiba,1,215.47,215.47,1,,,,
MA,santa helena,3,892.14,297.38,3,MA,santa helena,-2.240658556677419,-45.29903531548387
MA,santa ines,12,1956.91,163.08,12,MA,santa ines,-3.6611047630454547,-45.37839545
MA,santa luzia,2,313.52,156.76,2,MA,santa luzia,-3.9755968598,-45.665586776333335
MA,santa luzia do parua,1,115.78,115.78,1,MA,santa luzia do parua,-2.5443510021538462,-45.77599434307693
MA,santa quiteria do maranhao,1,100.75,100.75,1,MA,santa quiteria do maranhao,-3.4913395585789475,-42.57781256631579
MA,santa rita,1,124.33,124.33,1,MA,santa rita,-3.1351259906875,-44.32135112375
MA,sao benedito do rio preto,1,133.22,133.22,1,MA,sao benedito do rio preto,-3.3299215724444444,-43.52770116777778
MA,sao bento,2,661.03,330.52,2,MA,sao bento,-2.701466766645161,-44.833688404193545
MA,sao bernardo,3,923.39,307.8,3,MA,sao bernardo,-3.355520496,-42.42271900928571
MA,sao domingos do maranhao,2,219.51,109.76,2,MA,sao domingos do maranhao,-5.582111003473684,-44.38151405684211
MA,sao francisco do brejao,1,82.75,82.75,1,MA,sao francisco do brejao,-5.1260014416,-47.38607463
MA,sao joao batista,1,149.11,149.11,1,MA,sao joao batista,-2.9665687616666667,-44.81384442
MA,sao joao do paraiso,1,115.92,115.92,1,MA,sao joao do paraiso,-6.4648297054285715,-47.05622675285714
MA,sao joao dos patos,7,1615.47,230.78,7,MA,sao joao dos patos,-6.49820094252,-43.6994099024
MA,sao jose de ribamar,14,1870.87,133.63,14,MA,sao jose de ribamar,-2.551271479949367,-44.13573359075949
MA,sao luis,336,63411.79,182.22,348,MA,sao luis,-2.533424453640131,-44.254904276488546
MA,sao mateus do maranhao,3,930.7,310.23,3,MA,sao mateus do maranhao,-4.031620559,-44.465302926
MA,sao pedro da agua branca,1,336.56,336.56,1,MA,sao pedro da agua branca,-5.078214707333333,-48.42100226333333
MA,sao vicente ferrer,1,314.37,314.37,1,MA,sao vicente ferrer,-2.8971663978571427,-44.88344955428572
MA,satubinha,2,229.97,114.98,2,MA,satubinha,-4.03856229175,-45.23737623
MA,senador la rocque,1,124.43,124.43,1,MA,senador la rocque,-5.446848904777777,-47.29106197777778
MA,sitio novo,1,59.14,59.14,1,MA,sitio novo,-5.878850098,-46.7032244
MA,sucupira do norte,2,404.2,202.1,2,MA,sucupira do norte,-6.4774270395,-44.19122608833334
MA,timon,15,2242.63,149.51,15,MA,timon,-5.102541609764151,-42.83417435283019
MA,tutoia,2,556.87,278.44,2,MA,tutoia,-2.773210432138889,-42.27767177388889
MA,urbano santos,4,703.99,140.8,5,MA,urbano santos,-3.2083239159000003,-43.4029168555
MA,vargem grande,1,137.01,137.01,1,MA,vargem grande,-3.5442497724999997,-43.918434825357146
MA,viana,5,845.14,169.03,5,MA,viana,-3.211772637114286,-45.00167360485714
MA,vitoria do mearim,2,164.0,82.0,2,MA,vitoria do mearim,-3.4738407375263156,-44.875180520526314
MA,vitorino freire,3,1744.37,581.46,3,MA,vitorino freire,-4.286472935416667,-45.2473843725
MA,ze doca,5,878.92,175.78,5,MA,ze doca,-3.2756614210344823,-45.65518208827586
MG,abadia dos dourados,3,413.5,137.83,3,MG,abadia dos dourados,-18.47775160952381,-47.4063187047619
MG,abaete,12,1946.81,162.23,12,MG,abaete,-19.15859045554348,-45.447018318478264
MG,abre campo,5,367.29,73.46,5,MG,abre campo,-20.29643653875,-42.47504409125
MG,acaiaca,2,207.9,103.95,2,MG,acaiaca,-20.363171238666666,-43.14369076866667
MG,acucena,1,54.11,54.11,1,MG,acucena,-19.166116613333333,-42.70728169888889
MG,agua comprida,2,140.65,70.32,2,MG,agua comprida,-20.0573830975,-48.10875095
MG,aguas formosas,5,1580.57,316.11,5,MG,aguas formosas,-17.083219229333334,-40.93804696946667
MG,aguas vermelhas,3,692.89,230.96,3,MG,aguas vermelhas,-15.646052894883722,-41.48268818651163
MG,aimores,10,1143.77,114.38,10,MG,aimores,-19.50302996956989,-41.07171732172043
MG,aiuruoca,4,365.03,91.26,4,MG,aiuruoca,-21.978935521666667,-44.605713800555556
MG,alagoa,1,93.98,93.98,1,MG,alagoa,-22.17197514818182,-44.64274153090909
MG,alem paraiba,28,3548.32,126.73,28,MG,alem paraiba,-21.872316619234045,-42.694366754297874
MG,alexandrita,1,130.0,130.0,1,MG,alexandrita,-19.70174687,-50.4245314425
MG,alfenas,42,6539.45,152.08,43,MG,alfenas,-21.423585271816442,-45.951705135755255
MG,alfredo vasconcelos,3,616.74,205.58,3,MG,alfredo vasconcelos,-21.149443547692307,-43.76719335538461
MG,almenara,14,3212.33,229.45,14,MG,almenara,-16.176775246943006,-40.69378781968912
MG,alpercata,2,260.77,130.38,2,MG,alpercata,-18.978421830714286,-41.979012288571425
MG,alpinopolis,6,969.45,138.49,7,MG,alpinopolis,-20.85944140822785,-46.38676297670886
MG,alterosa,3,308.64,102.88,3,MG,alterosa,-21.256544271153846,-46.145386806153844
MG,alto caparao,2,522.08,261.04,2,MG,alto caparao,-20.443702757916665,-41.870103632083335
MG,alto jequitiba,3,275.43,91.81,3,MG,alto jequitiba,-20.426817234782607,-41.964137273913046
MG,alto rio doce,4,278.55,69.64,4,MG,alto rio doce,-21.023139417894736,-43.41272948368421
MG,alvarenga,2,245.11,122.56,2,MG,alvarenga,-19.417501520625,-41.727674869375
MG,alvinopolis,11,1020.96,92.81,11,MG,alvinopolis,-20.111419118,-43.06482286514286
MG,amparo da serra,1,66.06,66.06,1,MG,amparo da serra,-20.508567928461538,-42.80133938692308
MG,andradas,11,4595.97,383.0,12,MG,andradas,-22.070559830833332,-46.57354543589744
MG,andrelandia,3,169.07,56.36,3,MG,andrelandia,-21.73933263224138,-44.30950554258621
MG,andrequice,1,215.14,215.14,1,MG,andrequice,-18.25623,-45.06662
MG,angustura,1,166.29,166.29,1,MG,angustura,-21.86831355,-42.69874044
MG,antonio carlos,1,48.21,48.21,1,MG,antonio carlos,-21.317350278125,-43.751178063125
MG,antonio pereira,2,122.32,61.16,2,MG,antonio pereira,-20.290283583846154,-43.480703998461536
MG,antonio prado de minas,3,334.21,111.4,3,MG,antonio prado de minas,-21.015653634545455,-42.11552672909091
MG,antunes,1,135.39,135.39,1,MG,antunes,-19.907807843333334,-44.6982422
MG,aracitaba,2,156.74,78.37,2,MG,aracitaba,-21.340995042499998,-43.37763717625
MG,aracuai,9,1588.78,176.53,9,MG,aracuai,-16.87203224471698,-42.08235126839623
MG,araguari,53,12048.94,223.13,54,MG,araguari,-18.647619719771786,-48.194149333402486
MG,arantina,1,204.41,204.41,1,MG,arantina,-21.915095212307694,-44.25400522923076
MG,araponga,2,305.13,152.56,2,MG,araponga,-20.667113584545454,-42.520805540909095
MG,arapora,5,1253.37,250.67,5,MG,arapora,-18.433405454444443,-49.185180314722224
MG,arapua,1,112.77,112.77,1,MG,arapua,-19.036120388181818,-46.152468060909094
MG,araujos,5,2711.22,542.24,5,MG,araujos,-19.944211536571427,-45.16656094828571
MG,araxa,76,15147.01,199.3,76,MG,araxa,-19.592035661523973,-46.93895068409247
MG,arceburgo,7,1160.83,165.83,7,MG,arceburgo,-21.364023098799997,-46.9397420476
MG,arcos,24,5989.36,239.57,25,MG,arcos,-20.288002185318184,-45.541375668181814
MG,areado,6,1360.55,226.76,6,MG,areado,-21.35889195,-46.14454821818182
MG,arinos,8,959.82,119.98,8,MG,arinos,-15.922557954027777,-46.10810020763889
MG,astolfo dutra,8,1509.69,137.24,11,MG,astolfo dutra,-21.31423934037736,-42.86437071018868
MG,ataleia,2,200.69,100.34,2,MG,ataleia,-18.05876083653846,-41.13703282076923
MG,azurita,3,220.85,73.62,3,MG,azurita,-20.007752526666664,-44.47215580533334
MG,baependi,8,1587.39,198.42,8,MG,baependi,-21.9608403714,-44.887991240800005
MG,baguari,1,64.1,64.1,1,MG,baguari,-18.87194548,-41.96308233
MG,baldim,2,699.04,349.52,2,MG,baldim,-19.35343987,-43.95976261
MG,bambui,18,2558.68,142.15,18,MG,bambui,-20.015331217266187,-45.976755478920865
MG,bandeira,3,419.21,139.74,3,MG,bandeira,-15.885970947,-40.562243398999996
MG,bandeira do sul,2,466.3,233.15,2,MG,bandeira do sul,-21.73019561125,-46.386204583125
MG,barao de cocais,18,2452.94,136.27,18,MG,barao de cocais,-19.935537409898476,-43.481031756040615
MG,barbacena,74,14321.7,179.02,80,MG,barbacena,-21.218970984322148,-43.7712007737047
MG,barra longa,1,1341.55,1341.55,1,MG,barra longa,-20.283442427058823,-43.03966785
MG,barroso,11,1575.52,143.23,11,MG,barroso,-21.191247578,-43.974961270095235
MG,bela vista de minas,1,134.51,134.51,1,MG,bela vista de minas,-19.82797397173913,-43.09055532173913
MG,belo horizonte,2654,416733.39,151.54,2750,MG,belo horizonte,-19.905131713151892,-43.95950836560953
MG,belo oriente,5,833.02,166.6,5,MG,belo oriente,-19.238637457,-42.475201483999996
MG,belo vale,3,374.48,124.83,3,MG,belo vale,-20.411093702272726,-44.02543648545455
MG,berilo,1,78.22,78.22,1,MG,berilo,-16.918031460689654,-42.48152932103448
MG,berizal,1,221.98,221.98,1,MG,berizal,-15.620775850000001,-41.746141008
MG,bertopolis,1,82.12,82.12,1,MG,bertopolis,-17.0293311225,-40.55677849916666
MG,betim,199,34349.92,170.9,201,MG,betim,-19.953887042984494,-44.1655460336711
MG,bias fortes,2,108.48,54.24,2,MG,bias fortes,-21.60714535833333,-43.75713266333333
MG,bicas,6,868.55,124.08,7,MG,bicas,-21.719207204382023,-43.0656152394382
MG,boa esperanca,10,1769.0,160.82,11,MG,boa esperanca,-21.09532170601307,-45.5608179120915
MG,bocaiuva,12,1943.22,149.48,13,MG,bocaiuva,-17.114387194050632,-43.813290961392404
MG,bom despacho,38,5554.6,146.17,38,MG,bom despacho,-19.740140454871796,-45.25861139189102
MG,bom jardim de minas,8,1068.38,133.55,8,MG,bom jardim de minas,-21.948659464545454,-44.18564722659091
MG,bom jesus da penha,1,120.84,60.42,2,MG,bom jesus da penha,-21.01806685,-46.51884494857143
MG,bom jesus do amparo,1,218.54,218.54,1,MG,bom jesus do amparo,-19.707707716666665,-43.47524971833334
MG,bom jesus do galho,4,4923.81,1230.95,4,MG,bom jesus do galho,-19.706760797297296,-42.566343501621624
MG,bom repouso,4,487.95,121.99,4,MG,bom repouso,-22.470863448157893,-46.14660109105263
MG,bom sucesso,4,994.7,248.68,4,MG,bom sucesso,-21.033055476857143,-44.75698071085714
MG,bonfim,4,308.55,77.14,4,MG,bonfim,-20.33044573689655,-44.067547033793105
MG,bonfinopolis de minas,2,1433.75,716.88,2,MG,bonfinopolis de minas,-16.56387293142857,-45.995337264642856
MG,bonito de minas,1,115.44,115.44,1,MG,bonito de minas,-15.323133654285714,-44.75789116928571
MG,borda da mata,6,1062.25,177.04,6,MG,borda da mata,-22.262802188852458,-46.1707351
MG,botelhos,8,1456.47,182.06,8,MG,botelhos,-21.646891111276595,-46.39651469340425
MG,bras pires,2,108.02,54.01,2,MG,bras pires,-20.854717822,-43.24221462
MG,brasilandia de minas,1,98.49,98.49,1,MG,brasilandia de minas,-17.00598040840909,-46.007259975454545
MG,brasilia de minas,8,922.92,102.55,9,MG,brasilia de minas,-16.21298473269231,-44.43255191730769
MG,brasopolis,1,115.9,115.9,1,MG,brasopolis,-22.484217497428574,-45.617900356571425
MG,braunas,1,105.28,105.28,1,MG,braunas,-19.05322863875,-42.71812917
MG,brazopolis,6,1015.5,169.25,6,MG,brazopolis,-22.473836247692308,-45.61477678846154
MG,brejo bonito,1,153.9,153.9,1,MG,brejo bonito,-21.12553426,-56.48365874
MG,brumadinho,26,2795.24,107.51,26,MG,brumadinho,-20.139775655775402,-44.17604830839572
MG,bueno brandao,4,238.33,59.58,4,MG,bueno brandao,-22.442913798181817,-46.34868068484849
MG,buenopolis,5,1698.09,339.62,5,MG,buenopolis,-17.87509464147059,-44.1750585917647
MG,bugre,1,209.3,209.3,1,MG,bugre,-19.4286945175,-42.256885357499996
MG,buritis,13,2075.62,148.26,14,MG,buritis,-15.627601554554456,-46.426428022376236
MG,buritizeiro,9,3315.51,368.39,9,MG,buritizeiro,-17.362872929759035,-44.97274911469879
MG,cabeceira grande,2,348.75,116.25,3,MG,cabeceira grande,-16.05588522076923,-47.14426957269231
MG,cabo verde,3,519.17,173.06,3,MG,cabo verde,-21.474113482307693,-46.39561905692308
MG,cachoeira da prata,2,214.43,107.22,2,MG,cachoeira da prata,-19.52474481846154,-44.45065369
MG,cachoeira de minas,7,616.92,88.13,7,MG,cachoeira de minas,-22.35618006837209,-45.78270926883721
MG,cachoeira de pajeu,3,504.03,168.01,3,MG,cachoeira de pajeu,-15.960446105714286,-41.48419089714285
MG,cachoeira do brumado,1,211.17,211.17,1,MG,cachoeira do brumado,-20.394763455714287,-43.27792861428571
MG,cachoeira do campo,2,909.84,454.92,2,MG,cachoeira do campo,-20.33689182951613,-43.68367277629032
MG,cachoeira dourada,1,142.67,142.67,1,MG,cachoeira dourada,-18.523671858666667,-49.49809547066666
MG,caetanopolis,8,805.62,100.7,8,MG,caetanopolis,-19.304488092307693,-44.40818892
MG,caete,25,3153.05,116.78,27,MG,caete,-19.88480396339286,-43.664933030625
MG,caiana,3,285.61,95.2,3,MG,caiana,-20.697899485384614,-41.92245127692308
MG,cajuri,1,71.53,71.53,1,MG,cajuri,-20.789165345,-42.7954977025
MG,caldas,5,621.94,124.39,5,MG,caldas,-21.913251913448274,-46.393061933103446
MG,camacho,1,80.9,80.9,1,MG,camacho,-20.626884208181817,-45.15572455181818
MG,camanducaia,9,2381.76,264.64,9,MG,camanducaia,-22.75702740710843,-46.13824769072289
MG,cambui,20,3660.81,166.4,22,MG,cambui,-22.612206053766236,-46.058190192922076
MG,cambuquira,5,444.24,88.85,5,MG,cambuquira,-21.854638776333335,-45.296883955333335
MG,campanario,2,313.29,156.65,2,MG,campanario,-18.239938598888887,-41.72806928111111
MG,campanha,7,786.27,112.32,7,MG,campanha,-21.83469331139535,-45.40185565755814
MG,campestre,3,384.32,128.11,3,MG,campestre,-21.710827551285718,-46.246751118714286
MG,campina verde,10,868.85,86.88,10,MG,campina verde,-19.535349918873237,-49.4916094712676
MG,campo alegre de minas,1,137.93,137.93,1,MG,campo alegre de minas,-19.099162775,-41.03380534
MG,campo azul,1,96.22,96.22,1,MG,campo azul,-16.505728295,-44.811677797499996
MG,campo belo,21,2218.31,105.63,21,MG,campo belo,-20.893531447246964,-45.27572348550608
MG,campo do meio,4,309.08,77.27,4,MG,campo do meio,-21.109665382307693,-45.82946859615385
MG,campo florido,1,92.02,92.02,1,MG,campo florido,-19.762417130000003,-48.57504542233333
MG,campos altos,5,498.61,99.72,5,MG,campos altos,-19.696900764464285,-46.17007707267857
MG,campos gerais,5,679.17,135.83,5,MG,campos gerais,-21.237009192261905,-45.76002098321429
MG,canaa,1,69.54,69.54,1,MG,canaa,-20.68716114571429,-42.61986408714285
MG,canapolis,4,604.68,120.94,5,MG,canapolis,-18.72395044057143,-49.19886348114286
MG,candeias,9,1090.18,109.02,10,MG,candeias,-20.770727445813954,-45.27454060651163
MG,cantagalo,2,314.4,157.2,2,MG,cantagalo,-18.53042111125,-42.62326455125
MG,caparao,1,64.42,64.42,1,MG,caparao,-20.52371638875,-41.9064067575
MG,capela nova,1,121.27,121.27,1,MG,capela nova,-20.925343502727273,-43.62056758909091
MG,capelinha,19,2968.12,156.22,19,MG,capelinha,-17.695889076821192,-42.51735231768212
MG,capetinga,2,239.37,119.68,2,MG,capetinga,-20.621099797333333,-47.055165736666666
MG,capim branco,1,187.17,93.58,2,MG,capim branco,-19.54722077851852,-44.13140587444445
MG,capinopolis,11,1277.95,116.18,11,MG,capinopolis,-18.683874371199998,-49.5733381692
MG,capitao andrade,1,199.0,199.0,1,MG,capitao andrade,-19.070634880909093,-41.86335575272727
MG,capitao eneas,1,98.84,98.84,1,MG,capitao eneas,-16.571756558,-43.75165853666667
MG,capitolio,5,590.12,118.02,5,MG,capitolio,-20.615828125625,-46.046514051125
MG,caputira,2,590.66,295.33,2,MG,caputira,-20.172712451875,-42.2708373025
MG,carai,6,626.69,104.45,6,MG,carai,-17.187590314999998,-41.69754885863636
MG,carandai,11,1386.44,126.04,11,MG,carandai,-20.949680718282828,-43.80343470313131
MG,carangola,25,5198.49,192.54,27,MG,carangola,-20.73240442995283,-42.02985018891509
MG,caratinga,61,11211.45,180.83,62,MG,caratinga,-19.787262751879517,-42.138596067397586
MG,carbonita,3,841.12,210.28,4,MG,carbonita,-17.535873501219513,-43.016459669999996
MG,careacu,2,169.59,84.79,2,MG,careacu,-21.87367284846154,-45.87255674076923
MG,carlos chagas,3,198.46,66.15,3,MG,carlos chagas,-17.648783476567164,-40.88921152014925
MG,carmesia,1,280.63,280.63,1,MG,carmesia,-19.08648092357143,-43.14064774714286
MG,carmo da cachoeira,4,370.64,92.66,4,MG,carmo da cachoeira,-21.46118889604651,-45.22069447883721
MG,carmo da mata,6,578.61,96.44,6,MG,carmo da mata,-20.559683798035714,-44.86920190767857
MG,carmo de minas,3,699.53,233.18,3,MG,carmo de minas,-22.121099395588235,-45.12518299558823
MG,carmo do cajuru,10,1932.42,193.24,10,MG,carmo do cajuru,-20.279746466875,-44.82961337760417
MG,carmo do paranaiba,16,4652.95,290.81,16,MG,carmo do paranaiba,-18.998001922291664,-46.30882742902778
MG,carmo do rio claro,8,1969.53,218.84,9,MG,carmo do rio claro,-20.971414082962966,-46.12166275444444
MG,carmopolis de minas,5,1756.72,351.34,5,MG,carmopolis de minas,-20.540012505609756,-44.63642077073171
MG,carneirinho,3,345.03,115.01,3,MG,carneirinho,-19.71218167108108,-50.72125112513513
MG,carrancas,3,180.62,60.21,3,MG,carrancas,-21.489063624444444,-44.64233119
MG,carvalhopolis,3,308.84,102.95,3,MG,carvalhopolis,-21.778397191052633,-45.84291200368421
MG,cascalho rico,1,85.92,85.92,1,MG,cascalho rico,-18.595630892,-47.880322046
MG,cassia,6,364.41,60.73,6,MG,cassia,-20.58154186,-46.92239530869565
MG,cataguases,32,5273.52,159.8,33,MG,cataguases,-21.387318999543012,-42.69454507655914
MG,catas altas,5,1160.35,232.07,5,MG,catas altas,-20.075812374333335,-43.407344712333334
MG,caxambu,17,2245.96,132.12,17,MG,caxambu,-21.98054079588957,-44.9317589607362
MG,cedro do abaete,1,58.09,58.09,1,MG,cedro do abaete,-19.147111405,-45.71454009
MG,central de santa helena,1,158.76,158.76,1,MG,central de santa helena,-18.2762423075,-42.99784939
MG,centralina,1,45.09,45.09,1,MG,centralina,-18.58506158366667,-49.20076096766666
MG,chacara,2,226.28,113.14,2,MG,chacara,-21.672907767142856,-43.220028590000005
MG,chale,2,156.22,78.11,2,MG,chale,-20.044978377,-41.691217292
MG,chapada do norte,2,411.87,205.93,2,MG,chapada do norte,-17.092067160555555,-42.54183124722223
MG,chapada gaucha,4,528.01,132.0,4,MG,chapada gaucha,-15.304205803157895,-45.620664238684206
MG,chaveslandia,2,277.51,138.76,2,MG,chaveslandia,-19.04329047,-50.48805214
MG,claraval,1,197.04,197.04,1,MG,claraval,-20.402210771666667,-47.28558949166666
MG,claro dos pocoes,1,123.68,123.68,1,MG,claro dos pocoes,-17.049577777,-44.209245327
MG,claudio,19,3664.07,166.55,22,MG,claudio,-20.43792026373913,-44.76330196617392
MG,cocais,1,281.3,281.3,1,MG,cocais,-19.858923835,-43.450807335
MG,coimbra,1,55.01,55.01,1,MG,coimbra,-20.858309485925925,-42.80163472703703
MG,coluna,3,344.56,114.85,3,MG,coluna,-18.231705967307693,-42.839870212692304
MG,comercinho,1,144.65,144.65,1,MG,comercinho,-16.2968608825,-41.79449127
MG,conceicao da aparecida,5,1063.65,212.73,5,MG,conceicao da aparecida,-21.09673146896552,-46.2046180337931
MG,conceicao da ibitipoca,1,55.09,55.09,1,MG,conceicao da ibitipoca,-16.9755628225,-41.4299561925
MG,conceicao das alagoas,3,1641.4,547.13,3,MG,conceicao das alagoas,-19.920339669382717,-48.37436578950617
MG,conceicao das pedras,4,412.05,103.01,4,MG,conceicao das pedras,-22.158863647272728,-45.45382928090909
MG,conceicao do formoso,1,215.24,215.24,1,,,,
MG,conceicao do mato dentro,12,1606.34,133.86,12,MG,conceicao do mato dentro,-19.029840938,-43.428457884080004
MG,conceicao do para,3,749.55,249.85,3,MG,conceicao do para,-19.752064555,-44.896695533571425
MG,conceicao do rio verde,5,970.15,194.03,5,MG,conceicao do rio verde,-21.882219513499997,-45.0873802945
MG,conceicao dos ouros,4,714.92,178.73,4,MG,conceicao dos ouros,-22.41377933,-45.79633970387755
MG,confins,1,444.25,444.25,1,MG,confins,-19.633921848285713,-43.985330350571424
MG,congonhal,4,568.19,142.05,4,MG,congonhal,-21.89451164775,-45.689719922
MG,congonhas,30,3618.83,120.63,30,MG,congonhas,-20.510888585229885,-43.86222507390805
MG,conquista,5,602.42,100.4,6,MG,conquista,-19.93244256135135,-47.55283005594595
MG,conselheiro lafaiete,83,11192.38,133.24,84,MG,conselheiro lafaiete,-20.65789168015532,-43.779181772054955
MG,conselheiro pena,14,2393.18,159.55,15,MG,conselheiro pena,-19.164965506705883,-41.47305064588235
MG,contagem,414,58393.84,138.05,423,MG,contagem,-19.91896069862177,-44.057327243867576
MG,coracao de jesus,3,173.38,57.79,3,MG,coracao de jesus,-16.656579166190475,-44.34382541047619
MG,corinto,10,1545.63,140.51,11,MG,corinto,-18.36577664844156,-44.45449981714285
MG,coroaci,2,374.99,187.5,2,MG,coroaci,-18.620044096785712,-42.28269682357143
MG,coromandel,22,2948.41,117.94,25,MG,coromandel,-18.47611444725926,-47.19592749525926
